uid,facname,factype,latitude,longitude
30645,Achievement First Brooklyn HS,Charter School,40.677357,-73.942108
117539,PS 56-R,Elementary School,40.541948,-74.213901
18272,New World Prep Charter School,Charter School,40.639532,-74.136948
86884,International Cs Of NY Annex,Charter School,40.686806,-73.9771
100180,IS 49,Intermediate School,40.620479,-74.080885
101410,Academic High School,Academic High School,40.702343,-73.929649
96600,PS 124 & Playground,Elementary School,40.665683,-73.811274
8460,Morris Academy For Collaborative Studies,High school - Public,40.82726,-73.903853
88686,Kings Collegiate Charter School,Charter School,40.658896,-73.928745
92654,Community Partnership Charter,Charter School,40.690014,-73.96104
58147,PS 48 & Playground,Elementary School,40.694048,-73.796553
72506,Success Academy Charter Sch-NYC 14,Charter School,40.683946,-73.873688
23664,PS 152 Annex,Elementary School,40.628417,-73.928261
171631,Rosalyn Yalow Charter School,Charter School,40.836704,-73.917321
8671,PS 34,Special Education School,40.850279,-73.883802
41296,Global Community Charter School,Charter School,40.816973,-73.934899
163250,I. S. 381,Junior High-Intermediate-Middle School - Public,40.612588,-73.951438
94605,P.S. 033 Chelsea Prep,Elementary School - Public,40.748987,-74.000202
167875,IS 2 Parking,Intermediate School,40.656789,-73.951161
31600,"PS 138 Annex, E.C.C.#1",Elementary School,40.673768,-73.944966
40428,PS 152,Elementary School,40.753092,-73.900585
31751,PS 106 & Playground,Elementary School,40.693322,-73.913384
144539,Bronx Charter Sch-Excellence,Charter School,40.834093,-73.858542
134444,NYC Montessori Charter School,Charter School,40.808883,-73.92177
54825,Cardinal Mccloskey Community Charter,Charter School,40.851358,-73.887493
61545,Brooklyn Gardens Elementary School,Elementary School - Public,40.665554,-73.897632
117546,PS 35 & Playground,Elementary School,40.613426,-74.099502
41584,Achievement First Brownsville Charte,Charter School,40.674486,-73.913494
137027,The Family School,Elementary School - Public,40.832059,-73.917561
62719,Success Academy Charter School - Bronx 2,K-8 School - Charter,40.832255,-73.9142
105019,PS 122,Elementary School,40.882549,-73.893726
73030,Marta Valle High School,High school - Public,40.720182,-73.98597
131113,P.S. 015 Patrick F. Daly,Elementary School - Public,40.676941,-74.011652
62837,Lucero Elementary School,Elementary School - Public,40.840348,-73.915764
199711,Bronx Charter Sch For Excellence 5,Charter School,40.808756,-73.948875
135860,International Community High School,High school - Public,40.810208,-73.918450000000007
107695,Abraham Lincoln High School,High school - Public,40.582355,-73.968278
121745,P.S. 134 Henrietta Szold,Elementary School - Public,40.714351,-73.983048
114404,The Urban Assembly School For Law And Justice,High school - Public,40.694632,-73.988348
134437,Neighborhood School,Elementary School - Public,40.724425,-73.986221
162530,Muscota,Elementary School - Public,40.866366,-73.9239
92483,International High School At Lafayette,High school - Public,40.593591,-73.986157
83529,The Longwood Academy For Discovery,Elementary School - Public,40.820114,-73.898439
115468,The High School Of Fashion Industries,High school - Public,40.745671,-73.996355
99974,PS 19,Elementary School,40.630828,-74.127078
7225,John Ericsson Middle School 126,Junior High-Intermediate-Middle School - Public,40.719672,-73.948025
75660,PS 65,Elementary School,40.683395,-73.877248
82698,The Math & Science Exploratory School,Junior High-Intermediate-Middle School - Public,40.684276,-73.981105
119117,Brooklyn Democracy Academy,High school - Public,40.655764,-73.906688
77069,P.S. 282 Park Slope,K-8 School - Public,40.676633,-73.977799
5434,J.H.S. 057 Whitelaw Reid,Junior High-Intermediate-Middle School - Public,40.691539,-73.933211
84260,Queens High School For The Sciences At York College,High school - Public,40.700895,-73.798339
105828,Kurt Hahn Expeditionary Learning School,High school - Public,40.64804,-73.922224
69925,Sunset Park Prep,Junior High-Intermediate-Middle School - Public,40.652207,-74.007631
125830,"Felisa Rincon De Gautier Institute For Law And Public Policy, The",High school - Public,40.820829,-73.880771
108933,I.S. 171 Abraham Lincoln,Junior High-Intermediate-Middle School - Public,40.685879,-73.869441
30234,High School For Media And Communications,High school - Public,40.855599,-73.926191
77047,P.S. 025 Bilingual School,Elementary School - Public,40.812835,-73.905695
110881,Esperanza Preparatory Academy,Secondary School - Public,40.792563,-73.942021
138586,Bronx High School For Law And Community Service,High school - Public,40.859514,-73.888599
6000,Citizens Of The World Charter School 1 Williamsburg,Elementary School - Charter,40.719672,-73.948025
8585,Dream Charter School,K-12 all grades School - Charter,40.785632,-73.940974
61473,Achievement First East New York Charter School,K-12 all grades School - Charter,40.663882,-73.893277
104053,P.S. 398 Walter Weaver,Elementary School - Public,40.663965,-73.927899
75623,Long Island City High School,High school - Public,40.765523,-73.933106
136906,"PS 128 Plygrnd & Mini-Schl,Jop",Elementary School,40.841452,-73.938072
42336,Brooklyn Ascend Charter Middle Sch,Charter School,40.664091,-73.921701
160336,P.S. 330,Elementary School - Public,40.757617,-73.858922
86227,Global Technology Preparatory,Junior High-Intermediate-Middle School - Public,40.80079,-73.939341
5332,M.S. 035 Stephen Decatur,Junior High-Intermediate-Middle School - Public,40.68165,-73.935747
68227,P.S. Q016 The Nancy Debenedittis School,Elementary School - Public,40.722628,-73.838687
103191,P.S. 140 Nathan Straus,K-8 School - Public,40.7191,-73.983552
83494,P.S. 046 Edward C. Blum,Elementary School - Public,40.694489,-73.971635
74907,El Puente Academy For Peace And Justice,High school - Public,40.705646,-73.955536
88768,P.S. 058,Elementary School - Public,40.846263,-73.898899
62631,P.S. 053 Basheer Quisim,Elementary School - Public,40.832626,-73.911919
113005,"The Brooklyn New School, P.S. 146",Elementary School - Public,40.679541,-74.001941
77447,J.H.S. 088 Peter Rouget,Junior High-Intermediate-Middle School - Public,40.660496,-73.988286
105057,Bronx Collaborative High School,High school - Public,40.88128,-73.887483
39596,Brooklyn Studio Secondary School,Secondary School - Public,40.604995,-73.995081
90207,P.S. 335 Granville T. Woods,Elementary School - Public,40.674425,-73.92828
54897,PS 44,Elementary School,40.631675,-74.157325
86983,Brooklyn East Collegiate Charter School,Junior High-Intermediate-Middle School - Charter,40.678607,-73.966183
103458,Landmark High School,High school - Public,40.743356,-74.0025
198892,J.H.S. 383 Philippa Schuyler,Junior High-Intermediate-Middle School - Public,40.697694,-73.919288
99218,Business Technology Early College High School,High school - Public,40.733769,-73.739231
137027,The Family School,Elementary School - Public,40.832059,-73.917561
4249,P.S. 321 William Penn,Elementary School - Public,40.671676,-73.978353
62311,J.H.S. 123 James M. Kieran,Junior High-Intermediate-Middle School - Public,40.82497,-73.873999
64239,P.S. 117 J. Keld / Briarwood School,Elementary School - Public,40.710305,-73.813031
62631,P.S. 053 Basheer Quisim,Elementary School - Public,40.832626,-73.911919
115065,Lighthouse Elementary School,Elementary School - Public,40.594606,-73.767023
137960,Urban Assembly Cs - Computer Science,Charter School,40.831814,-73.878702
110862,P.S. 095 Sheila Mencher,K-8 School - Public,40.883103,-73.891558
129513,P.S./I.S. 78q,K-8 School - Public,40.744322,-73.956955
61386,Pre-K Annex Of PS 276,Elementary School,40.634617,-73.906408
30516,Brooklyn Prospect Charter-Csd 15,Charter School,40.647946,-73.978706
117318,P.S./I.S. 157 The Benjamin Franklin Health & Science Academy,K-8 School - Public,40.695397,-73.959993
92603,Achievement First Brownsville Charter School,K-12 all grades School - Charter,40.674491,-73.91326
129421,P.S. 129 John H. Finley,K-8 School - Public,40.814976,-73.952175
96619,P.S. 120 Queens,Elementary School - Public,40.745172,-73.828903
76579,St. Hope Leadership Academy Charter School,Junior High-Intermediate-Middle School - Charter,40.814944,-73.945854
95546,Roads Charter School II,High school - Charter,40.823276,-73.898313
125769,Community Action School - Ms 258,Junior High-Intermediate-Middle School - Public,40.791462,-73.970972
123537,University Heights Secondary School,High school - Public,40.818132,-73.911522
31855,All City Leadership Secondary School,Secondary School - Public,40.69767,-73.913205
72326,Ralph A. Fabrizio School,Elementary School - Public,40.630427,-74.018795
97250,Grover Cleveland High School,High school - Public,40.711579,-73.909229
135825,P.S. 9 Ryer Avenue Elementary School,Elementary School - Public,40.856618,-73.898821
83380,Kipp Acad Elementary Charter School,Charter School,40.822573,-73.923545
63497,P.S./I.S. 54,Elementary School - Public,40.86494,-73.887843
60265,P.S. 119 Amersfort,Elementary School - Public,40.626036,-73.938811
32679,The Steam Bridge School,Elementary School - Public,40.843536,-73.865121
110978,The Lexington Academy,K-8 School - Public,40.791288,-73.947573
22605,PS 25 & PS 4 Portable,Special Education School,40.539687,-74.236942
113176,International High School At Laguardia Community College,High school - Public,40.743283,-73.933339
135026,Success Academy Charter School - Bronx 3,Elementary School - Charter,40.824941,-73.905765
85625,P.S. 193 Alfred J. Kennedy,Elementary School - Public,40.792118,-73.809496
147039,PS 53 Mini Schools 1 And 2,Elementary School,40.833392,-73.911468
5565,Success Academy Prospect Heights (Brooklyn 6),Elementary School - Charter,40.673938,-73.95136
82853,P.S. 142 Amalia Castro,Elementary School - Public,40.71825,-73.984063
134233,P.S. 015 Roberto Clemente,Elementary School - Public,40.72188,-73.978737
111095,"Heritage School, The",High school - Public,40.791986,-73.946782
8710,IS 51 Annex,Intermediate School,40.620393,-74.164543
122281,PS 23,Elementary School,40.570846,-74.132912
101597,Fiorello H. Laguardia High School Of Music & Art And Performing Arts,High school - Public,40.774189,-73.98596
61244,Teachers Preparatory High School,Secondary School - Public,40.665575,-73.912083
105846,New York City Lab Middle School For Collaborative Studies,Junior High-Intermediate-Middle School - Public,40.742569,-74.00236
49763,Harlem Link Charter School,Elementary School - Charter,40.798458,-73.949953
77011,P.S. 5 Port Morris,K-8 School - Public,40.813657,-73.908456
69819,Jean Nuzzi Intermediate School,Junior High-Intermediate-Middle School - Public,40.720417,-73.746544
76454,Aspirations Diploma Plus High School,High school - Public,40.677518,-73.903988
116786,Success Academy Hell's Kitchen (Manhattan 2),Elementary School - Charter,40.763798,-73.990398
31674,Ronald Edmonds Learning Center II,Junior High-Intermediate-Middle School - Public,40.673048,-73.91999
122209,East Side Middle School,Junior High-Intermediate-Middle School - Public,40.780605,-73.947521
157913,Harlem Hebrew Language Academy,Charter School,40.751176,-73.981675
81068,Satellite East Middle School,Junior High-Intermediate-Middle School - Public,40.685738,-73.945262
108937,Highland Park Community School,Junior High-Intermediate-Middle School - Public,40.685879,-73.869441
138638,P.S. 032 Belmont,Elementary School - Public,40.85182,-73.886224
116220,P.S. 226,Elementary School - Public,40.855491,-73.916188
93854,Coney Island Prep Public Charter Sch,Charter School,40.598903,-73.974224
134003,The 47 American Sign Language & English Lower School,K-8 School - Public,40.738625,-73.981555
25643,Kipp Washington Heights Middle School,K-12 all grades School - Charter,40.846159,-73.935114
101753,East New York Family Academy,Secondary School - Public,40.661269,-73.886765
160508,Harlem Village Academy Charter School,K-12 all grades School - Charter,40.821262,-73.940805
89199,P.S. 015 Jackie Robinson,Elementary School - Public,40.686025,-73.756929
5556,P.S. 138 Brooklyn,K-8 School - Public,40.673938,-73.95136
75518,P.S. 021 Edward Hart,Elementary School - Public,40.774179,-73.818394
75638,P.S. K134,Elementary School - Public,40.632123,-73.973184
131249,P.S. 272 Curtis Estabrook,Elementary School - Public,40.635492,-73.886401
89219,Achievement First University Prep,Charter School,40.700957,-73.92767
162283,Community Roots Charter School,Charter School,40.695445,-73.977903
82816,P.S. 025 Eubie Blake School,Elementary School - Public,40.69147,-73.940709
162451,P.S. 008 Robert Fulton,K-8 School - Public,40.695434,-73.985607
74510,J.H.S. 218 James P. Sinnott,Junior High-Intermediate-Middle School - Public,40.670153,-73.874523
92526,Mark Twain I.S. 239 For The Gifted & Talented,Junior High-Intermediate-Middle School - Public,40.578659,-73.992405
33633,Stephen T. Mather Building Arts & Craftsmanship High School,High school - Public,40.763798,-73.990398
91279,P.S. 040 Samuel Huntington,Elementary School - Public,40.69399,-73.79091
9293,Port Richmond HS & Af,Academic High School,40.634601,-74.142403
116679,I.S. 289,Junior High-Intermediate-Middle School - Public,40.716969,-74.013793
94371,P.S. 146 Howard Beach,K-8 School - Public,40.660521,-73.834777
162618,Harlem Village Academy West Charter,Charter School,40.821325,-73.940736
117253,Edward A. Reynolds West Side High School,High school - Public,40.797117,-73.966788
87030,Franklin Delano Roosevelt High School,High school - Public,40.621239,-73.982368
193830,Washington Heights Expeditionary Learning School,K-12 all grades School - Public,40.849255,-73.930915
123878,Paula Hedbavny School,K-8 School - Public,40.871662,-73.91248
80050,P.S. 251 Paerdegat,Elementary School - Public,40.63131,-73.923872
159520,Bushwick Community High School,High school - Public,40.69566,-73.915428
123743,M.S. 839,Junior High-Intermediate-Middle School - Public,40.64797,-73.973159
85480,York Early College Academy,Secondary School - Public,40.69713,-73.786572
83652,Brooklyn Frontiers High School,High school - Public,40.690002,-73.989325
5212,J.H.S. 227 Edward B. Shallow,Junior High-Intermediate-Middle School - Public,40.621955,-73.995752
154452,PS 22,Elementary School,40.624806,-74.150561
68323,P.S. Q086,Elementary School - Public,40.709407,-73.803656
137959,Mott Hall V,Secondary School - Public,40.832101,-73.877455
83625,P.S. 261 Philip Livingston,Elementary School - Public,40.687125,-73.988398
93608,J.H.S. 201 The Dyker Heights,Junior High-Intermediate-Middle School - Public,40.618765,-74.013284
148771,Zeta Charter School - Bronx 1,Charter School,40.809413,-73.925387
87439,East Williamsburg Scholars Academy,High school - Public,40.711725,-73.939269
164174,"PS 19, Mini-School, Playground",Elementary School,40.748564,-73.866547
95907,The 51 Avenue Academy (The Path To Academic Excellence),Elementary School - Public,40.737222,-73.887084
57890,P.S. 196 Ten Eyck,Elementary School - Public,40.708772,-73.939569
163410,Broome St Academy Charter High Schoo,Charter School,40.724132,-74.005063
138369,P.S. 277,Elementary School - Public,40.813362,-73.913791
83375,Careers In Sports High School,High school - Public,40.822036,-73.923397
62836,The Walton Avenue School,Elementary School - Public,40.840348,-73.915764
136781,PS 148,Special Education School,40.786327,-73.979225
56361,Success Academy Charter-Harlem 6,Charter School,40.816213,-73.953495
136955,Success Academy Charter Schools-Bron,Charter School,40.827892,-73.914175
70668,P.S. 144 Col Jeromus Remsen,Elementary School - Public,40.714978,-73.852848
163836,C.E.S. 104,Elementary School,40.84676,-73.918319
105701,Mott Hall Charter School,Charter School,40.831002,-73.9022
47970,High School For Arts And Business,High school - Public,40.737652,-73.853459
72511,Success Academy Charter Sch-NYC 12,Charter School,40.683946,-73.873688
32981,I.S. 73 - The Frank Sansivieri Intermediate School,Junior High-Intermediate-Middle School - Public,40.728683,-73.893383
105827,It Takes A Village Academy,High school - Public,40.64804,-73.922224
103642,New Bridges Elementary,Elementary School - Public,40.669488,-73.934322
92480,Life Academy High School For Film And Music,High school - Public,40.593591,-73.986157
107433,Elijah Stroud Middle School,Junior High-Intermediate-Middle School - Public,40.674573,-73.960911
113269,Summit Academy Charter School,Charter School,40.677711,-74.005039
39544,Brooklyn Preparatory High School,High school - Public,40.715528,-73.954876
71161,P.S./M.S. 114 Belle Harbor,K-8 School - Public,40.57776,-73.854484
105962,P.S. 130 Hernando De Soto,Elementary School - Public,40.718695,-73.998331
20283,P.S. 056 Harry Eichler,Elementary School - Public,40.699073,-73.835593
84958,P.S./ I.S. 155 Nicholas Herkimer,K-8 School - Public,40.677615,-73.908698
69902,I.S. 136 Charles O. Dewey,Junior High-Intermediate-Middle School - Public,40.652207,-74.007631
123696,International Leadership Charter Hig,Charter School,40.881035,-73.909318
119095,IS 340 (Old PS 111),Intermediate School,40.676265,-73.969788
110763,Frank Mccourt High School,High school - Public,40.785965,-73.97405
161835,P.S. 092 Harry T. Stewart Sr.,Elementary School - Public,40.756011,-73.868683
104442,I.S. 125 Thom J. Mccann Woodside,Junior High-Intermediate-Middle School - Public,40.740562,-73.918683
158925,P.S. 195 William Haberle,Elementary School - Public,40.652672,-73.735167
73687,P.S. 032 State Street,Elementary School - Public,40.765215,-73.794324
90092,Yorkville East Middle School,Junior High-Intermediate-Middle School - Public,40.770283,-73.950776
59076,New Public Schoool,Elementary School,40.594572,-73.771366
61303,Explore Excel Charter School,K-8 School - Charter,40.635177,-73.910882
73642,P.S. 091 Richard Arkwright,Elementary School - Public,40.703534,-73.88405
123829,P.S. 018 Park Terrace,K-8 School - Public,40.871456,-73.911746
102756,Future Leaders Institute Charter School,K-8 School - Charter,40.806152,-73.948418
104949,P.S. 204 Morris Heights,Elementary School - Public,40.84999,-73.915268
103464,Humanities Preparatory Academy,High school - Public,40.743356,-74.0025
193841,The College Academy,High school - Public,40.855599,-73.926191
25632,IS 90,Intermediate School,40.839216,-73.935729
101607,West End Secondary School,Secondary School - Public,40.772609,-73.988334
153921,Williamsburg High School For Architecture And Design,High school - Public,40.715528,-73.954876
75492,J.H.S. 189 Daniel Carter Beard,Junior High-Intermediate-Middle School - Public,40.760077,-73.818276
127781,P.S. 048 Joseph R. Drake,Elementary School - Public,40.814116,-73.886866
200810,Norma Adams Clemons Academy,Elementary School - Public,40.649043,-73.956244
79041,Kipp Amp Charter School,Charter School,40.672304,-73.937243
116597,P.S. 234 Independence School,Elementary School - Public,40.716231,-74.011639
72904,Repertory Company High School For Theatre Arts,High school - Public,40.756075,-73.984396
78944,Harlem Children's Zone Promise,Charter School,40.806147,-73.940978
193795,P.S. 173,Elementary School - Public,40.845512,-73.939899
7264,The Williamsburg High School Of Art And Technology,High school - Public,40.709757,-73.944495
123454,Bronx Center For Science And Mathematics,High school - Public,40.833949,-73.90273
74503,"The School For Classics: An Academy Of Thinkers, Writers And Performers",High school - Public,40.670153,-73.874523
79117,Bronx Charter School For Better Learning II,Elementary School - Charter,40.864306,-73.836551
69891,I.S. 093 Ridgewood,Junior High-Intermediate-Middle School - Public,40.705604,-73.903064
33102,P.S. 748 Brooklyn School For Global Scholars,Elementary School - Public,40.60692,-74.007275
1410,P.S. 172 Beacon School Of Excellence,Elementary School - Public,40.657752,-74.0003
69941,P.S./M.S. 147 Ronald Mcnair,K-8 School - Public,40.697607,-73.740362
85459,P.S. 160 Walter Francis Bishop,Elementary School - Public,40.688174,-73.799853
137963,The Metropolitan Soundview High School,High school - Public,40.832034,-73.878476
180477,New Visions Aim Charter HS I,Charter School,40.677254,-73.903916
181282,Cobble Hill School Of American Studies,High school - Public,40.684874,-73.990887
31812,P.S. 376,Elementary School - Public,40.698064,-73.920222
45688,P.S. 345 Patrolman Robert Bolden,Elementary School - Public,40.676217,-73.879844
61280,New American Acad Charter Sch (The),Charter School,40.651526,-73.914194
5088,Brooklyn Prospect Charter School Downtown,Junior High-Intermediate-Middle School - Charter,40.692048,-73.95844
73152,P.S. 153 Homecrest,Elementary School - Public,40.601177,-73.960025
72156,P.S. 028 Mount Hope,Elementary School - Public,40.848319,-73.903673
143517,New Dawn Charter HS II,Charter School,40.683001,-73.990495
92731,P.S. 022 Thomas Jefferson,Elementary School - Public,40.761783,-73.810932
123569,Mott Haven Village Preparatory High School,High school - Public,40.818132,-73.911522
61815,Achievement First Apollo Charter School,K-8 School - Charter,40.676946,-73.883839
157278,PS 226,Elementary School,40.770549,-73.763666
123707,P.S. 153 Helen Keller,Elementary School - Public,40.873049,-73.833094
33670,Compass Charter School,Charter School,40.708683,-74.01166
3284,School,School,40.593553,-73.766581
86828,New Visions Chtr HS-Humanities IIi,Charter School,40.593497,-73.93671
26574,PS 55 Annex,Elementary School,40.691287,-73.81766
83766,PS 370,Elementary School,40.577701,-73.969841
91279,P.S. 040 Samuel Huntington,Elementary School - Public,40.69399,-73.79091
74481,P.S. 150 Christopher,Elementary School - Public,40.668636,-73.905093
143414,Bronx Community Charter School Annex,Charter School,40.855792,-73.896118
155615,P.S. 200- The James Mccune Smith School,Elementary School - Public,40.823929,-73.935672
101585,Special Music School,K-12 all grades School - Public,40.7749,-73.98563
68273,P.S. 182 Samantha Smith,Elementary School - Public,40.706446,-73.801312
34741,School For Excellence,High school - Public,40.82726,-73.903853
30229,High School For Health Careers And Sciences,High school - Public,40.855599,-73.926191
147609,Kings Collegiate Charter High School,Charter School,40.677354,-73.942115
119130,Leadership Prep Brownsville Charter,Charter School,40.655764,-73.906688
47639,Success Academy Charter School - Harlem 2,K-8 School - Charter,40.815707,-73.955626
84280,P.S. 199 Maurice A. Fitzgerald,Elementary School - Public,40.736918,-73.92156
116680,P.S. 89,Elementary School - Public,40.716969,-74.013793
61862,Academic Leadership Charter School,K-8 School - Charter,40.811063,-73.909358
97713,P.S. 041 Gun Hill Road,Elementary School - Public,40.874646,-73.867862
73190,Pace High School,High school - Public,40.716236,-73.993602
121530,Academy For Software Engineering,High school - Public,40.735319,-73.987085
79981,Success Academy Charter-Bed Stuy 2,Charter School,40.6976,-73.943553
108902,Theatre Arts Production Company School,Secondary School - Public,40.854434,-73.897229
64232,J.H.S. 217 Robert A. Van Wyck,Junior High-Intermediate-Middle School - Public,40.710411,-73.811821
69843,Intermediate School,Intermediate School,40.699686,-73.905001
163046,Frederick Douglass Academy Vii High School,High school - Public,40.665575,-73.912083
24534,P.S. 087 Bronx,Elementary School - Public,40.895483,-73.846006
167906,Cynthia Jenkins School,Elementary School - Public,40.676253,-73.758612
63484,Academy For Scholarship And Entrepreneurship: A College Board School,High school - Public,40.88822,-73.852669
106853,P.S. 182,Elementary School - Public,40.818739,-73.856897
130000,East Side Community School,Secondary School - Public,40.729141,-73.982481
5984,I.S. 096 Seth Low,Junior High-Intermediate-Middle School - Public,40.607989,-73.984972
103457,"James Baldwin School, The: A School For Expeditionary Learning",High school - Public,40.743356,-74.0025
85459,P.S. 160 Walter Francis Bishop,Elementary School - Public,40.688174,-73.799853
134866,P.S. 096 Joseph Lanzetta,K-8 School - Public,40.799843,-73.937112
5517,Brooklyn Arts And Science Elementary School,Elementary School - Public,40.677021,-73.960053
154526,P.S. 012 James B. Colgate,Elementary School - Public,40.742298,-73.893068
99349,P.S. 221 The North Hills School,Elementary School - Public,40.758571,-73.731311
136875,Castle Bridge School,Elementary School - Public,40.841028,-73.938751
107513,P.S. 139 Alexine A. Fenty,Elementary School - Public,40.641321,-73.965812
41758,P.S. 016 Wakefield,Elementary School - Public,40.902306,-73.854449
30126,Democracy Prep Harlem Charter School,K-12 all grades School - Charter,40.806978,-73.93861
77528,J.H.S. 259 William Mckinley,Junior High-Intermediate-Middle School - Public,40.626213,-74.014778
21456,Excellence Girls Charter School,Charter School,40.688161,-73.924345
30992,Success Academy Cs - Bronx 4,Charter School,40.823491,-73.859805
113229,Elm Tree Elementary School,Elementary School - Public,40.735877,-73.878624
122202,Harvey Milk High School,High school - Public,40.72978,-73.992721
96655,"The Queens College School For Math, Science And Technology",K-8 School - Public,40.738689,-73.820985
162712,Success Academy Charter School - Bed-Stuy 1,K-8 School - Charter,40.696705,-73.947263
139988,P.S. 97 The Highlawn,Elementary School - Public,40.601162,-73.98569
158039,John W Lavelle Prep Charter School,Charter School,40.607354,-74.172985
32656,Young Voices Academy Of The Bronx,Elementary School - Public,40.854241,-73.863501
77520,P.S. 256 Benjamin Banneker,Elementary School - Public,40.690516,-73.94983
154635,P.S. 123 Suydam,Elementary School - Public,40.704104,-73.922504
159663,Icahn Charter School 6 - Middle Scho,Charter School,40.837913,-73.868495
88773,Traffic Enforcement Command,Academic High School,40.846486,-73.896604
22940,Bridge Preparatory Charter School,Charter School,40.547844,-74.178517
135808,P.S. 130 Abram Stevens Hewitt,Elementary School - Public,40.817721,-73.90188
3041,P.S./M.S. 200 - The Pomonok School & Star Academy,K-8 School - Public,40.731169,-73.805531
182127,P.S. 180 Hugo Newman,K-8 School - Public,40.807618,-73.955941
71173,P.S. 079 Francis Lewis,Elementary School - Public,40.78622,-73.817537
63483,The Bronxwood Preparatory Academy,High school - Public,40.88822,-73.852669
149999,Equity Project Charter School (The),Charter School,40.855786,-73.926514
156779,Explore Excel Charter Upper Campus,Charter School,40.635177,-73.910882
151495,"High School For Mathematics, Science And Engineering At City College",High school - Public,40.821477,-73.949042
5686,P.S. 329 Surfside,Elementary School - Public,40.574844,-73.9958
81820,PS 80  The Thurgood Marshall Magnet School Of Multimedia And Communication,Elementary School - Public,40.673344,-73.769204
62444,J.H.S. 022 Jordan L. Mott,Junior High-Intermediate-Middle School - Public,40.832255,-73.9142
88537,P.S. 011 Highbridge,Elementary School - Public,40.839769,-73.925909
41797,P.S. 029 Queens,Elementary School - Public,40.778152,-73.842971
105795,PS 45,Elementary School,40.628507,-74.107468
77516,Community Partnership Charter School,K-8 School - Charter,40.690516,-73.94983
8623,P.S. 146 Ann M. Short,Elementary School - Public,40.789716,-73.939083
75524,J.H.S. 185 Edward Bleeker,Junior High-Intermediate-Middle School - Public,40.774919,-73.81842
47522,PS 177 & Playground,Special Education School,40.743266,-73.78733
116796,Professional Performing Arts High School,Secondary School - Public,40.761347,-73.98865
49881,PS 41,Elementary School,40.573597,-74.108493
119098,P.S. 084 Jose De Diego,K-8 School - Public,40.71492,-73.963433
178334,Liberty High School Academy For Newcomers,High school - Public,40.741821,-74.000236
58054,J F Kennedy Airport,Academic High School,40.640597,-73.758024
61731,High School For Civil Rights,High school - Public,40.666862,-73.895127
167497,PS 58,Special Education School,40.764163,-73.985913
76615,Jill Chaifetz Transfer High School,High school - Public,40.818869,-73.905332
91366,Bronx Envision Academy,High school - Public,40.836304,-73.890646
4249,P.S. 321 William Penn,Elementary School - Public,40.671676,-73.978353
193771,Harbor Heights,Junior High-Intermediate-Middle School - Public,40.845512,-73.939899
5943,P.S. 238 Anne Sullivan,K-8 School - Public,40.608783,-73.964617
78909,Voyages Prep - South Queens,High school - Public,40.674746,-73.783242
106823,Bronx Compass High School,High school - Public,40.821438,-73.855897
61473,Achievement First East New York Charter School,K-12 all grades School - Charter,40.700957,-73.92767
62313,P.S. 152 Evergreen,Elementary School - Public,40.823964,-73.880489
26194,W.E.B. Dubois Academic High School,High school - Public,40.669508,-73.955165
109798,City College Academy Of The Arts,Secondary School - Public,40.860897,-73.930016
63438,Bronx High School For Writing And Communication Arts,High school - Public,40.875185,-73.861635
5908,Achievement First North Brooklyn Prep Charter School,Elementary School - Charter,40.693811,-73.914892
77630,Achievement First Voyager Charter,Charter School,40.656245,-73.953879
109982,"P.S. 279 Captain Manuel Rivera, Jr.",K-8 School - Public,40.854687,-73.905012
68516,P.S. 013 Clement C. Moore,Elementary School - Public,40.737344,-73.867795
87545,P.S. 042 Claremont,Elementary School - Public,40.838594,-73.903114
73292,I.S. 313 School Of Leadership Development,Junior High-Intermediate-Middle School - Public,40.8406,-73.90418
72334,High School Of Telecommunication Arts And Technology,High school - Public,40.636699,-74.023365
63232,P.S. 108 Philip J. Abinanti,Elementary School - Public,40.85456,-73.852929
164368,Jhs 252 & Playground,Elementary School,40.65771,-73.919818
8424,School For Tourism And Hospitality,High school - Public,40.821714,-73.90282
77300,The Bellaire School,Elementary School - Public,40.72086,-73.757636
101617,"High School For Law, Advocacy And Community Justice",High school - Public,40.7749,-73.98563
127781,P.S. 048 Joseph R. Drake,Elementary School - Public,40.813639,-73.887585
111941,The Highbridge Green School,Junior High-Intermediate-Middle School - Public,40.838172,-73.928112
77323,Mott Hall Iv,Junior High-Intermediate-Middle School - Public,40.67807,-73.915367
109839,The Alain L. Locke Magnet School For Environmental Stewardship,Elementary School - Public,40.798458,-73.949953
92605,Elementary School,Elementary School,40.67341,-73.911953
63581,J.H.S. 210 Elizabeth Blackwell,Junior High-Intermediate-Middle School - Public,40.684658,-73.84762
83267,P.S. 007 Abraham Lincoln,Elementary School - Public,40.689311,-73.873024
155797,Dream Charter High School,Charter School,40.794896,-73.934574
32981,I.S. 73 - The Frank Sansivieri Intermediate School,Junior High-Intermediate-Middle School - Public,40.728683,-73.893383
58101,P.S. 143 Louis Armstrong,Elementary School - Public,40.755801,-73.855963
94692,P.S. 269 Nostrand,Elementary School - Public,40.637691,-73.947712
152428,Icahn Charter School 3,Charter School,40.856903,-73.843319
88698,P.S. 023 The New Children's School,Elementary School - Public,40.853364,-73.894817
86835,New Visions Charter High School For The Humanities IIi,High school - Charter,40.593497,-73.93671
131764,Fort Hamilton High School,High school - Public,40.627177,-74.039362
4946,P.S. 176 Ovington,Elementary School - Public,40.624781,-74.00507
104055,P.S. 770 New American Academy,Elementary School - Public,40.663965,-73.927899
7431,J.H.S. 234 Arthur W. Cunningham,Junior High-Intermediate-Middle School - Public,40.604549,-73.955156
103448,Hudson High School Of Learning Technologies,High school - Public,40.743356,-74.0025
92656,P.S. 270 Johann Dekalb,Elementary School - Public,40.689724,-73.961096
193208,Leadership Prep Bedford Stuyvesant Uncommon Prep Charter School,K-12 all grades School - Charter,40.684611,-73.947965
163387,P.S. 024 Spuyten Duyvil,Elementary School - Public,40.886889,-73.914576
178705,J.H.S. 062 Ditmas,Junior High-Intermediate-Middle School - Public,40.638194,-73.97123
83374,Carl C Icahn Charter Middle School,Charter School,40.838378,-73.905035
85497,Success Academy Charter School - Williamsburg,Elementary School - Charter,40.71186,-73.95997
137918,"P.S./M.S. 20 P.O.George J. Werdann, IIi",K-8 School - Public,40.869579,-73.878724
129406,Teachers College Community School,K-8 School - Public,40.812569,-73.953622
117379,Thurgood Marshall Academy For Learning And Social Change,Secondary School - Public,40.815236,-73.94432
31839,J.H.S. 291 Roland Hayes,Junior High-Intermediate-Middle School - Public,40.69566,-73.915428
138330,The Laboratory School Of Finance And Technology: X223,Secondary School - Public,40.813277,-73.920536
77761,P.S. 152 Gwendoline N. Alleyne School,Elementary School - Public,40.753067,-73.900368
63899,P.S. 084 Steinway,Elementary School - Public,40.771151,-73.90612
160614,Frederick Douglass Academy II Secondary School,Secondary School - Public,40.802637,-73.95414
105837,Cultural Academy For The Arts And Sciences,High school - Public,40.64804,-73.922224
67557,PS 228,Intermediate School,40.756936,-73.874881
112555,Brooklyn Bridge Academy,High school - Public,40.633717,-73.917621
177244,Launch Expeditionary Lrning Charter,Charter School,40.675868,-73.935569
91374,Explorations Academy H.S.,High school - Public,40.836304,-73.890646
69827,P.S. 81q Jean Paul Richter,Elementary School - Public,40.705298,-73.911458
62719,Success Academy Charter School - Bronx 2,K-8 School - Charter,40.835878,-73.904926
115614,High School For Environmental Studies,High school - Public,40.767871,-73.988634
103354,P.S. 189 The Bilingual Center,K-8 School - Public,40.665426,-73.92567
83523,Holcombe L. Rucker School Of Community Research,High school - Public,40.817751,-73.897862
63969,P.S. 055 Maure,Elementary School - Public,40.693632,-73.816261
42205,Harlem Prep Charter School,Charter School,40.801609,-73.935486
86094,P.S. 183 Robert L. Stevenson,Elementary School - Public,40.763767,-73.957747
124528,PS 811 (Old PS 187-Cmhc)&Plygd,Special Education School,40.756463,-73.728703
159994,Family Life Academy Charter I,Charter School,40.840446,-73.918945
91411,I.S. 237,Junior High-Intermediate-Middle School - Public,40.749528,-73.821446
82907,The River School,Elementary School - Public,40.744469,-73.972401
103297,Columbia Secondary School,Secondary School - Public,40.810789,-73.956097
100087,I.S. 229 Roland Patterson,Junior High-Intermediate-Middle School - Public,40.853069,-73.920738
61316,Explore Excel Charter School,Charter School,40.642691,-73.907905
71197,World Journalism Preparatory: A College Board School,Secondary School - Public,40.764987,-73.789702
109743,J.H.S. 052 Inwood,Junior High-Intermediate-Middle School - Public,40.865631,-73.925113
106996,Academic High School,Academic High School,40.753009,-73.992441
21730,PS 7 (K007),Elementary School,40.689313,-73.87338
118094,M.S. 129 Academy For Independent Learning And Leadership,Junior High-Intermediate-Middle School - Public,40.845921,-73.886726
159637,Children's Aid College Prep Charter,Charter School,40.843687,-73.889921
75686,P.S. 106 Parkchester,Elementary School - Public,40.837114,-73.854855
164528,Children's Aid College Prep Charter,Charter School,40.829702,-73.891561
90352,School,School,40.693064,-73.992098
26828,P.S. 230 Doris L. Cohen,Elementary School - Public,40.643492,-73.979126
7187,P.S. 121 Nelson A. Rockefeller,K-8 School - Public,40.622884,-73.978769
73687,P.S. 032 State Street,Elementary School - Public,40.765215,-73.794324
165531,J.H.S. 223 The Montauk,Junior High-Intermediate-Middle School - Public,40.634959,-73.982218
109766,P.S. 152 Dyckman Valley,Elementary School - Public,40.860048,-73.927608
5340,P.S. 186 Dr. Irving A Gladstone,Elementary School - Public,40.611098,-73.994555
122577,P.S. 002 Meyer London,Elementary School - Public,40.712983,-73.991675
95551,BX Lighthouse Charter School,Charter School,40.823225,-73.897384
102984,Brownsville Collaborative Middle School,Junior High-Intermediate-Middle School - Public,40.671065,-73.907762
61632,Comm Schl For Cont Ed,Academic High School,40.672118,-73.886212
69902,I.S. 136 Charles O. Dewey,Junior High-Intermediate-Middle School - Public,40.652207,-74.007631
156593,High School For Community Leadership,High school - Public,40.714261,-73.798075
125667,Murry Bergtraum High School For Business Careers,High school - Public,40.711254,-74.001642
161824,P.S. K225 - The Eileen E. Zaglin,K-8 School - Public,40.580071,-73.956012
137336,PS 91 & Mini School,Elementary School,40.857683,-73.907698
91412,East-West School Of International Studies,Secondary School - Public,40.749528,-73.821446
163865,P.S. 215 Morris H. Weiss,Elementary School - Public,40.60242,-73.97002
60506,P.S. 399 Stanley Eugene Clark,Elementary School - Public,40.648238,-73.951791
103063,The Bilingual Bicultural School,Elementary School - Public,40.793211,-73.94203
91329,P.S. 095 The Gravesend,K-8 School - Public,40.595903,-73.974846
156970,Epic High School - North,High school - Public,40.692875,-73.829093
137229,American Dream Charter School,Junior High-Intermediate-Middle School - Charter,40.809125,-73.91759
77094,Kingsborough Early College School,Secondary School - Public,40.593591,-73.986157
138572,Knowledge And Power Preparatory Academy International High School (Kappa),High school - Public,40.859514,-73.888599
122653,Dock Street School For Steam Studies,Junior High-Intermediate-Middle School - Public,40.702956,-73.992071
138344,South Bronx Preparatory: A College Board School,Secondary School - Public,40.813277,-73.920536
157292,Brooklyn Excelsior Charter Sch,Charter School,40.689748,-73.925089
46846,P.S./I.S. 210 - Twenty-First Century Academy For Community Leadership,K-8 School - Public,40.829997,-73.944646
134218,Earth School,Elementary School - Public,40.723767,-73.981723
104342,P.S. 121 Throop,Elementary School - Public,40.867014,-73.850604
93870,P.S. 164 Caesar Rodney,Elementary School - Public,40.637156,-73.985826
61582,Hyde Leadership Cs-Brooklyn,Charter School,40.667786,-73.898196
21195,American Dream Charter School,Charter School,40.809092,-73.917221
73013,Mott Hall Community School,Junior High-Intermediate-Middle School - Public,40.827007,-73.818266
105998,P.S. 094 David D. Porter,Elementary School - Public,40.771324,-73.738642
39717,P.S. 139 Rego Park,Elementary School - Public,40.728119,-73.862884
80011,Benjamin N. Cardozo High School,High school - Public,40.751848,-73.756587
83731,P.S. 098 The Douglaston School,Elementary School - Public,40.76909,-73.749807
104948,I.S. X303 Leadership & Community Service,Junior High-Intermediate-Middle School - Public,40.849464,-73.915519
86094,P.S. 183 Robert L. Stevenson,Elementary School - Public,40.764006,-73.957401
5793,Kings Collegiate Charter School,K-8 School - Charter,40.657871,-73.920036
104682,P.S. /I.S. 384 Frances E. Carter,K-8 School - Public,40.689751,-73.90484
138587,Fordham Leadership Academy,High school - Public,40.859514,-73.888599
25643,Kipp Washington Heights Middle School,K-12 all grades School - Charter,40.839358,-73.935707
98584,Humanities & Arts Magnet High School,High school - Public,40.698401,-73.746213
61009,P.S. 135 Sheldon A. Brookner,Elementary School - Public,40.644114,-73.921421
97485,P.S. 123,Elementary School - Public,40.678753,-73.795499
123642,Baychester Middle School,Junior High-Intermediate-Middle School - Public,40.886165,-73.84043
106947,P.S. 059 Beekman Hill International,Elementary School - Public,40.7593,-73.966356
21564,Intermediate School 61,Intermediate School,40.634583,-74.097799
112542,Brooklyn Generation School,High school - Public,40.633717,-73.917621
82880,Manhattan Charter School,Charter School,40.718482,-73.983935
75665,P.S. 065,Elementary School - Public,40.686918,-73.878284
116597,P.S. 234 Independence School,Elementary School - Public,40.716586,-74.012417
108868,Civic Leadership Academy,High school - Public,40.74336,-73.871498
71609,P.S. 162 John Golden,Elementary School - Public,40.748761,-73.776764
73234,Brooklyn Charter School,Elementary School - Charter,40.694428,-73.947678
63875,P.S. 085 Judge Charles Vallone,Elementary School - Public,40.773072,-73.914977
97596,"Young Women's Leadership School, Queens",Secondary School - Public,40.708434,-73.804178
116545,Urban Assembly New York Harbor School,High school - Public,40.690779,-74.020447
194244,P.S. 097 Forest Park,Elementary School - Public,40.694275,-73.860009
6035,P.S. 116 Elizabeth L Farrell,Elementary School - Public,40.698055,-73.916586
143401,Bronx Community Charter School,Charter School,40.857326,-73.894531
34667,Young Women's Leadership School Of The Bronx,Secondary School - Public,40.848596,-73.908854
3306,Talent Unlimited High School,High school - Public,40.765584,-73.959615
110772,Success Academy Charter School - Upper West,K-8 School - Charter,40.785965,-73.97405
90215,Explore Empower Charter School,K-8 School - Charter,40.672693,-73.928472
83196,Academic High School,Academic High School,40.770735,-73.924469
62272,The Dr. Emmett W. Bassett School,Elementary School - Public,40.828525,-73.857155
78979,Harlem Village Academy HS,Charter School,40.806479,-73.944121
112150,P.S. 001 Alfred E. Smith,Elementary School - Public,40.712579,-73.997483
95554,Bronx Regional High School,High school - Public,40.823276,-73.898313
135903,The Urban Assembly Bronx Academy Of Letters,Secondary School - Public,40.813720000000004,-73.925919
71582,P.S. 024 Andrew Jackson,Elementary School - Public,40.751874,-73.817968
60529,P.S. 198 Brooklyn,Elementary School - Public,40.63739,-73.937056
95819,Scholars' Academy,Secondary School - Public,40.584396,-73.82517
104806,Creedmoor PSychiatric Center,Academic High School,40.741235,-73.728844
129408,P.S. 161 Pedro Albizu Campos,K-8 School - Public,40.817692,-73.952494
72878,Baccalaureate School For Global Education,Secondary School - Public,40.754997,-73.926967
166130,Metropolitan Lighthouse Charter Sch,Charter School,40.834294,-73.930197
97107,PS 50 & Playground (Jop),Elementary School,40.561479,-74.12487
164534,PS 14 & Stapleton HSes Playgd,Elementary School,40.623455,-74.079762
90170,Thomas A. Edison Career And Technical Education High School,High school - Public,40.716385,-73.798793
62220,New Visions Charter High School For The Humanities II,High school - Charter,40.810511,-73.907597
26231,Academy Of Arts And Letters,K-8 School - Public,40.691085,-73.971075
136919,Success Acad Charter Sch-Bronx 3,Charter School,40.827786,-73.914068
69136,P.S. 134 Hollis,Elementary School - Public,40.70768,-73.754812
94458,"Science, Technology And Research Early College High School At Erasmus",Secondary School - Public,40.649579,-73.957105
5883,Evergreen Middle School For Urban Exploration,Junior High-Intermediate-Middle School - Public,40.688913,-73.910332
124167,J.H.S. 292 Margaret S. Douglas,Junior High-Intermediate-Middle School - Public,40.67163,-73.893332
61502,P.S. 013 Roberto Clemente,Elementary School - Public,40.663882,-73.893277
40201,The 30th Avenue School (G&T Citywide),K-8 School - Public,40.768155,-73.922663
138571,Belmont Preparatory High School,High school - Public,40.859514,-73.888599
74286,P.S. 096 Richard Rodgers,Elementary School - Public,40.860726,-73.868997
77012,Hostos-Lincoln Academy Of Science,Secondary School - Public,40.814736,-73.91205
106837,Millennium Art Academy,High school - Public,40.821438,-73.855897
79048,Kipp Amp Charter School,K-12 all grades School - Charter,40.672232,-73.937218
106834,P.S. 069 Journey Prep School,Elementary School - Public,40.818236,-73.861524
73214,P.S. 076 The Bennington School,Elementary School - Public,40.869225,-73.861003
113847,IS 24,Intermediate School,40.54574,-74.145505
106822,Bronx Community High School,High school - Public,40.821438,-73.855897
103426,Manhattan Village Academy,High school - Public,40.742003,-73.992173
3897,"I.S. X318 Math, Science & Technology Through Arts",Junior High-Intermediate-Middle School - Public,40.843817,-73.890104
110808,Central Park East II,K-8 School - Public,40.792302,-73.951424
161501,P.S. 222 Katherine R. Snyder,Elementary School - Public,40.613802,-73.938982
138385,P.S. 085 Great Expectations,Elementary School - Public,40.85883,-73.894845
166100,I.S. 230,Junior High-Intermediate-Middle School - Public,40.752621,-73.892864
75001,The New School For Leadership And Journalism,Junior High-Intermediate-Middle School - Public,40.875585,-73.901511
139988,P.S. 97 The Highlawn,Elementary School - Public,40.601162,-73.98569
83417,J.H.S. 067 Louis Pasteur,Junior High-Intermediate-Middle School - Public,40.762493,-73.734443
107592,P.S. 214 Michael Friedsam,Elementary School - Public,40.676175,-73.863128
153809,Bronx Latin,Secondary School - Public,40.827356,-73.900616
82821,Success Academy Charter School - Bed Stuy 3,Elementary School - Charter,40.69147,-73.940709
93859,I.S. 228 David A. Boody,Junior High-Intermediate-Middle School - Public,40.600844,-73.976821
76327,P.S. 290 Juan Morel Campos,Elementary School - Public,40.678159,-73.889486
122247,Sunset Park High School,High school - Public,40.655552,-74.004282
5504,Acorn Community High School,High school - Public,40.678607,-73.961758
96979,Epic High School - South,High school - Public,40.675172,-73.816741
134821,P.S. 206 Jose Celso Barbosa,K-8 School - Public,40.796735,-73.930154
99285,P.S. 089 Bronx,K-8 School - Public,40.862627,-73.859245
84280,P.S. 199 Maurice A. Fitzgerald,Elementary School - Public,40.739648,-73.926316
57866,P.S. 65 - The Raymond York Elementary School,Elementary School - Public,40.682638,-73.841513
102199,Achievement First Aspire Charter School,Elementary School - Charter,40.666102,-73.8763
120794,PS 54,Elementary School,40.602851,-74.13772
125218,PS 48 & Playground.(Jop),Elementary School,40.602175,-74.090076
101424,P.S. 120 Carlos Tapia,Elementary School - Public,40.700679,-73.93769
34670,P.S. 236 Langston Hughes,Elementary School - Public,40.848902,-73.909828
88021,Maspeth High School,High school - Public,40.72909,-73.8877
83768,P.S. 100 The Coney Island School,Elementary School - Public,40.577568,-73.970848
58622,P.S. 064 Joseph P. Addabbo,Elementary School - Public,40.682036,-73.856962
162551,Kipp Star Harlem College Prep Elemen,Charter School,40.819419,-73.957195
49802,"M.S. 267 Math, Science & Technology",Junior High-Intermediate-Middle School - Public,40.687938,-73.932374
92379,P.S. 081 Thaddeus Stevens,Elementary School - Public,40.692939,-73.934692
112768,P.S. 019 Judith K. Weiss,K-8 School - Public,40.89935,-73.867212
87078,PS 77,Special Education School,40.678726,-73.976693
148686,Growing Up Green Charter School,Charter School,40.753113,-73.935704
62272,The Dr. Emmett W. Bassett School,Elementary School - Public,40.829156,-73.857613
71193,I.S. 025 Adrien Block,Junior High-Intermediate-Middle School - Public,40.764987,-73.789702
5246,P.S. 247 Brooklyn,Elementary School - Public,40.612254,-73.987199
109863,Success Academy Cs - Bergen Beach,Charter School,40.620798,-73.913059
106906,Rockaway Park High School For Environmental Sustainability,High school - Public,40.586574,-73.823593
74491,Brownsville Collegiate Charter School,Junior High-Intermediate-Middle School - Charter,40.668636,-73.905093
5511,Explore Exceed Charter School,Charter School,40.676922,-73.959842
77124,J.H.S. 118 William W. Niles,Junior High-Intermediate-Middle School - Public,40.848528,-73.892593
5540,P.S. 243k- The Weeksville School,Elementary School - Public,40.675768,-73.93522
25833,Leadership Prep Canarsie Middle Acad,Charter School,40.644072,-73.892664
80005,Academy Of The City Charter School,Charter School,40.760658,-73.939835
39290,Middle Village Prep Charter School,Charter School,40.710738,-73.888464
75372,P.S. 297 Abraham Stockton,Elementary School - Public,40.69744,-73.947834
167845,Ella Baker School,K-8 School - Public,40.765584,-73.959615
5697,P.S. 310 Marble Hill,Elementary School - Public,40.872463,-73.905308
116250,P.S. 291,Elementary School - Public,40.859192,-73.909845
125617,P.S. 032 Samuel Mills Sprole,Elementary School - Public,40.680238,-73.990735
106831,Antonia Pantoja Preparatory Academy: A College Board School,Secondary School - Public,40.821438,-73.855897
163271,Academy Of Innovative Technology,High school - Public,40.69302,-73.869078
104734,Creedmoor PSychiatric Center,Elementary School,40.741235,-73.728844
136033,"Ballet Tech, NYC Public School For Dance",K-8 School - Public,40.738536,-73.989493
77260,P.S. 124 Silas B. Dutcher,Elementary School - Public,40.667495,-73.990686
89262,I.S. 347 School Of Humanities,Junior High-Intermediate-Middle School - Public,40.700957,-73.92767
31675,P.S. 178 Saint Clair Mckelway,K-8 School - Public,40.671267,-73.91808
74966,Bronx High School For The Visual Arts,High school - Public,40.851589,-73.864422
120721,P.S. 002 Alfred Zimberg,Elementary School - Public,40.769958,-73.894116
85978,P.S. 195,Elementary School - Public,40.830795,-73.877399
3026,P.S. 184 Flushing Manor,Elementary School - Public,40.77835,-73.799774
157194,Grand Concourse Acad Charter Sch,Charter School,40.825763,-73.838515
76797,P.S. 157 Grove Hill,Elementary School - Public,40.819281,-73.909092
110638,M.S. 250 West Side Collaborative Middle School,Junior High-Intermediate-Middle School - Public,40.795112,-73.973966
57869,Queens Vocational And Technical High School,High school - Public,40.741617,-73.927971
135026,Success Academy Charter School - Bronx 3,Elementary School - Charter,40.827723,-73.913812
102782,Nelson Mandela High School,High school - Public,40.678931,-73.931599
102788,Boys And Girls High School,High school - Public,40.678931,-73.931599
84280,P.S. 199 Maurice A. Fitzgerald,Elementary School - Public,40.739428,-73.928681
177355,Bronx Delta School,Elementary School - Public,40.827007,-73.818266
193707,Harlem Renaissance High School,High school - Public,40.807741,-73.939955
138576,West Bronx Academy For The Future,Secondary School - Public,40.859514,-73.888599
115384,P.S. 273 Wortman,Elementary School - Public,40.658351,-73.879171
113789,Success Academy North West Middle Sc,Charter School,40.815478,-73.955556
107582,PS 159 Mini-School,Elementary School,40.676125,-73.868751
117508,M.S. M245 The Computer School,Junior High-Intermediate-Middle School - Public,40.780878,-73.977819
75475,Icahn Charter School 2,Charter School,40.845023,-73.858079
115730,PS 3,Elementary School,40.520626,-74.211716
137837,P.S. 166 The Richard Rodgers School Of The Arts And Technology,Elementary School - Public,40.788941,-73.972531
163265,School Of Science & Technology,Elementary School - Public,40.632617,-73.954266
99654,New Utrecht High School,High school - Public,40.613336,-74.002779
87537,Success Academy Charter-Bronx 2,Charter School,40.83625,-73.905067
154904,The Emerson School,Junior High-Intermediate-Middle School - Public,40.69713,-73.786572
111097,Young Women's Leadership School,Secondary School - Public,40.792938,-73.947168
61053,P.S. 121 Queens,Elementary School - Public,40.683792,-73.815525
34232,P.S. 315 Lab School,K-8 School - Public,40.857943,-73.903761
124463,The Urban Assembly Unison School,Junior High-Intermediate-Middle School - Public,40.684469,-73.960498
129416,Harlem Link Charter School-Annex,Charter School,40.814328,-73.952793
23438,Academic High School,Academic High School,40.72412,-74.005143
134917,Wadleigh Secondary School For The Performing & Visual Arts,Secondary School - Public,40.802637,-73.95414
5427,Madiba Prep Middle School,Junior High-Intermediate-Middle School - Public,40.691611,-73.931388
121520,Success Academy Union Square (Manhattan 1),Elementary School - Charter,40.735319,-73.987085
138505,Health Opportunities High School,High school - Public,40.815788,-73.929981
6009,P.S. 086 The Irvington,Elementary School - Public,40.700611,-73.917786
166453,New Visions Charter High School For Advanced Math And Science Iv,High school - Charter,40.674746,-73.783242
153975,Brooklyn Laboratory Charter School,Charter School,40.697117,-73.987324
58217,P.S. 150 Queens,Elementary School - Public,40.746364,-73.920307
167064,Queens Hospital Ctr/Gateway HS,Academic High School,40.716931,-73.804262
62384,Dr. Richard Izquierdo Health And Science Charter School,Secondary School - Charter,40.827356,-73.900616
62272,The Dr. Emmett W. Bassett School,Elementary School - Public,40.828525,-73.857155
193842,The Equity Project Charter School (Tep),K-8 School - Charter,40.855599,-73.926191
107393,Queens Metropolitan High School,High school - Public,40.708525,-73.855802
121553,Union Square Academy For Health Sciences,High school - Public,40.735319,-73.987085
153872,Automotive High School,High school - Public,40.722223,-73.953603
86977,Dist Office 13 (Old PS 9 Annex,Elementary School,40.676323,-73.965868
194169,P.S. 197 - The Kings Highway Academy,Elementary School - Public,40.612588,-73.951438
111112,Mosaic Preparatory Academy,Elementary School - Public,40.79601,-73.944567
154816,Bronx Charter-Better Learning II,Charter School,40.864196,-73.836304
135825,P.S. 9 Ryer Avenue Elementary School,Elementary School - Public,40.856618,-73.898821
55467,"PS 58, Is43",Elementary School,40.582813,-74.160904
73859,P.S. 050 Talfourd Lawn Elementary School,Elementary School - Public,40.694881,-73.806777
41316,P.S. 154 Harriet Tubman,Elementary School - Public,40.810518,-73.948759
75915,Frank Sinatra School Of The Arts High School,High school - Public,40.756127,-73.925165
8324,P.S. 165 Robert E. Simon,K-8 School - Public,40.802609,-73.96598
45186,South Bronx Classical  - II Ms,Charter School,40.820437,-73.927132
62309,Boys Prep Charter School Of NY Annex,Charter School,40.825007,-73.873767
131208,P.S. 171 Patrick Henry,K-8 School - Public,40.792302,-73.951424
105782,High School For Public Service: Heroes Of Tomorrow,High school - Public,40.65899,-73.943273
193525,Mckee Vocational HS,Vocational High School,40.642852,-74.079273
138614,Frederick Douglass Academy V. Middle School,Junior High-Intermediate-Middle School - Public,40.848698,-73.888976
8668,P.S. 205 Fiorello Laguardia,Elementary School - Public,40.853189,-73.882148
110704,Hunter College Elem & HS,Academic High School,40.785576,-73.954979
77582,P.S. 104 The Bays Water,Elementary School - Public,40.607999,-73.765068
84316,Academy Of American Studies,High school - Public,40.751602,-73.936811
166970,South Bronx Charter School,Charter School,40.807427,-73.916312
61911,Jhs 155 & Playground,Intermediate School,40.811063,-73.909358
3608,P.S. 096,Elementary School - Public,40.675331,-73.808131
99549,Coney Island Preparatory Public Charter School,K-12 all grades School - Charter,40.594402,-73.993858
101393,I.S. 364 Gateway,Junior High-Intermediate-Middle School - Public,40.646314,-73.880956
158664,Atmosphere Academy Public Charter,Charter School,40.875129,-73.910307
83489,Success Acad Charter Sch-Fort Greene,Charter School,40.69648,-73.975981
83277,P.S./I.S. 116 William C. Hughley,K-8 School - Public,40.700756,-73.781784
125872,Community Roots Charter School,K-8 School - Charter,40.697851,-73.981008
119249,Riverton Street Charter School,Charter School,40.6893,-73.763557
61631,P.S. 158 Warwick,Elementary School - Public,40.672598,-73.88522
31734,Achievement First Bushwick Charter School,K-12 all grades School - Charter,40.697694,-73.919288
101787,Van Siclen Community Middle School,Junior High-Intermediate-Middle School - Public,40.659744,-73.885656
136325,Eagle Academy For Young Men Of Harlem,Secondary School - Public,40.817275,-73.947241
84938,P.S. 033 Edward M. Funk,Elementary School - Public,40.727108,-73.734506
160191,Neighborhood Charter Of Harlem 2,Charter School,40.824627,-73.945737
167912,Achievement First Brooklyn HS,Charter School,40.67738,-73.94195
57453,Canarsie Ascend Charter School,Charter School,40.644469,-73.900441
77107,P.S. 059 The Community School Of Technology,Elementary School - Public,40.850842,-73.893134
103598,P.S. 040 George W. Carver,Elementary School - Public,40.680195,-73.921474
83267,P.S. 007 Abraham Lincoln,Elementary School - Public,40.689311,-73.873024
101614,Manhattan / Hunter Science High School,High school - Public,40.7749,-73.98563
75264,Beg With Children Charter Sch,Charter School,40.699079,-73.945187
85975,P.S. 196,Elementary School - Public,40.830795,-73.877399
103288,Kipp Star College Prep Charter,Charter School,40.810755,-73.956019
180022,P.S. 207 Rockwood Park,K-8 School - Public,40.657941,-73.844014
111447,New Dorp HS & Af,Academic High School,40.570008,-74.107022
156738,West Queens HS,Academic High School,40.765934,-73.933965
155903,P.S. 128 Audubon,Elementary School - Public,40.841028,-73.938751
31886,The Brooklyn School For Social Justice,High school - Public,40.696813,-73.911847
30145,M.S. 319 - Maria Teresa,Junior High-Intermediate-Middle School - Public,40.839358,-73.935707
93027,P.S. 179 Kensington,Elementary School - Public,40.640228,-73.977274
125780,P.S. 084 Lillian Weber,Elementary School - Public,40.78938,-73.968099
59020,W. H. Maxwell Career And Technical Education High School,High school - Public,40.673649,-73.895864
124355,IS 84,Intermediate School,40.830545,-73.887128
163041,P.S. 109,K-8 School - Public,40.636004,-73.933096
123303,P.S. 232 Lindenwood,K-8 School - Public,40.665689,-73.850759
77439,P.S. 295,Elementary School - Public,40.660965,-73.989011
104425,Frederick Douglass Academy Viii Middle School,Junior High-Intermediate-Middle School - Public,40.646753,-73.881845
160414,Success Academy Charter School - Harlem 4,K-8 School - Charter,40.801583,-73.955494
115687,IS 7 & Playground,Intermediate School,40.523221,-74.186174
25153,South Bronx Classical Charter School,K-8 School - Charter,40.822205,-73.894432
96974,J.H.S. 226 Virgil I. Grissom,Junior High-Intermediate-Middle School - Public,40.675172,-73.816741
101753,East New York Family Academy,Secondary School - Public,40.661269,-73.886765
126536,Success Acad Charter Sch-Harlem 4,Charter School,40.801743,-73.955589
106791,P.S. 249 The Caton,Elementary School - Public,40.649622,-73.966426
74282,P.S. 031 Samuel F. Dupont,Elementary School - Public,40.726914,-73.954116
90120,South Bronx Classical Charter School II,Elementary School - Charter,40.808259,-73.925778
117260,West Prep Academy,Junior High-Intermediate-Middle School - Public,40.799106,-73.965362
33869,Bronx Charter School For The Arts,Charter School,40.821674,-73.886388
134069,Family Life Academy Charter Sch II,Charter School,40.811483,-73.92512
103538,P.S. 192 Jacob H. Schiff,Elementary School - Public,40.820993,-73.953069
117580,Frederick Douglass Academy,Secondary School - Public,40.823929,-73.935672
94439,PS 11,Elementary School,40.590737,-74.09796
117425,Cascades High School,High school - Public,40.722388,-73.990485
134807,River East Elementary,Elementary School - Public,40.796735,-73.930154
21185,PS 43 Annex,Elementary School,40.594657,-73.760513
76526,The Windsor Terrace School,Elementary School - Public,40.657066,-73.976103
146904,A. Philip Randolph Campus High School,High school - Public,40.818382,-73.949904
173628,Kipp Freedom Charter School II,Charter School,40.784254,-73.953659
71168,J.H.S. 194 William Carr,Junior High-Intermediate-Middle School - Public,40.783247,-73.806504
118129,The School Of Science And Applied Learning,Elementary School - Public,40.845921,-73.886726
111310,"PS 38, Mini-Schl & Plgnd (Jop)",Elementary School,40.574786,-74.099285
103383,P.S. 156 Waverly,Elementary School - Public,40.66538,-73.917894
8457,Bronx International High School,High school - Public,40.82726,-73.903853
107988,P.S. 047 John Randolph,Elementary School - Public,40.832631,-73.866978
62334,Bronx Studio School For Writers And Artists,Secondary School - Public,40.82039,-73.892961
4141,Success Academy Cs-Cobble Hill,Charter School,40.685317,-73.993335
121608,Millennium High School,High school - Public,40.704686,-74.011232
193182,PS 369,Special Education School,40.687332,-73.983258
101856,P.S. 063 Old South,Elementary School - Public,40.676918,-73.846824
113004,Brooklyn Secondary School For Collaborative Studies,Secondary School - Public,40.679541,-74.001941
73208,P.S. 124 Yung Wing,Elementary School - Public,40.714659,-73.995598
97553,Bronx Engineering And Technology Academy,High school - Public,40.877239,-73.91312
77380,J.H.S. 167 Robert F. Wagner,Junior High-Intermediate-Middle School - Public,40.771672,-73.957918
5671,P.S. 288 The Shirley Tanyhill,K-8 School - Public,40.574256,-73.99244
31702,P.S. 299 Thomas Warren Field,Elementary School - Public,40.69097,-73.917722
90462,P.S. 047 Chris Galas,K-8 School - Public,40.606469,-73.820778
61392,P.S. 115 Daniel Mucatel School,Elementary School - Public,40.634881,-73.897891
107678,New Directions Secondary School,Secondary School - Public,40.839581,-73.911303
135029,Girls Preparatory Charter School Of The Bronx,K-8 School - Charter,40.815984,-73.901816
180341,P.S. 181 Brooklyn,K-8 School - Public,40.648109,-73.945913
78914,August Martin High School,High school - Public,40.674746,-73.783242
77107,P.S. 059 The Community School Of Technology,Elementary School - Public,40.85313,-73.893599
163314,Cypress Hills Collegiate Preparatory School,High school - Public,40.69302,-73.869078
30140,Kipp NYC Washington Heights Charter,Charter School,40.839436,-73.935915
134074,Vanguard High School,High school - Public,40.765584,-73.959615
75844,P.S. 031 Bayside,Elementary School - Public,40.757604,-73.76912
116836,PS 39 & Playground,Elementary School,40.597934,-74.070135
109865,Success Academy Charter School - Bergen Beach - New York 4,Elementary School - Charter,40.620798,-73.913059
77135,P.S. 3 Raul Julia Micro Society,K-8 School - Public,40.850113,-73.891685
123455,Eximius College Preparatory Academy: A College Board School,High school - Public,40.833949,-73.90273
64701,Renaissance Charter School 2 (The),Charter School,40.749928,-73.884825
129597,The Bronx Mathematics Preparatory School,Junior High-Intermediate-Middle School - Public,40.814967,-73.856072
99285,P.S. 089 Bronx,K-8 School - Public,40.862627,-73.859245
137890,J.H.S. 080 The Mosholu Parkway,Junior High-Intermediate-Middle School - Public,40.87691,-73.88133
71597,P.S. 188 Kingsbury,Elementary School - Public,40.736103,-73.753615
103779,P.S. 221 Toussaint L'Ouverture,Elementary School - Public,40.663933,-73.936057
105054,Bronx High School Of Science,High school - Public,40.87835,-73.890843
103126,James Weldon Johnson,K-8 School - Public,40.797393,-73.941525
197096,The High School For Global Citizenship,High school - Public,40.669805,-73.96069
129531,Academic High School,Academic High School,40.742201,-73.945231
77325,Eagle Academy For Young Men II,Secondary School - Public,40.67807,-73.915367
74213,Queens Gateway To Health Sciences Secondary School,Secondary School - Public,40.71848,-73.805961
75690,Linden Tree Elementary School,Elementary School - Public,40.838416,-73.853202
61124,P.S. 165 Ida Posner,Elementary School - Public,40.657185,-73.91098
179926,South Bronx Classical Charter II,Charter School,40.808044,-73.925841
134883,Democracy Prep Endurance Charter HS,Charter School,40.801573,-73.935105
113815,New Design Middle School,Junior High-Intermediate-Middle School - Public,40.819779,-73.957064
155317,Academic High School,Academic High School,40.700263,-73.948187
47361,Democracy Prep Charter School,K-12 all grades School - Charter,40.814944,-73.945854
124474,P.S. 056 Lewis H. Latimer,Elementary School - Public,40.684469,-73.960498
118202,PS 46 & Playground,Elementary School,40.594175,-74.080584
116545,Urban Assembly New York Harbor School,High school - Public,40.691752,-74.013082
94473,Success Academy - Ditmas Park Ms,Charter School,40.648341,-73.953423
117474,P.S. 034 Franklin D. Roosevelt,K-8 School - Public,40.726116,-73.975059
78796,Leaders Of Tomorrow,Junior High-Intermediate-Middle School - Public,40.880665,-73.860114
61057,East Brooklyn Community High School,High school - Public,40.659815,-73.920572
113807,Urban Assembly School For The Performing Arts,High school - Public,40.815707,-73.955626
83432,The School For Future Leaders,Elementary School - Public,40.632148,-74.007545
49763,Harlem Link Charter School,Elementary School - Charter,40.798458,-73.949953
167894,Pre-K Center @ Corona Ave-Qns,Educational Skills Center,40.743798,-73.858516
115776,Beacon High School,High school - Public,40.761196,-73.99614
73193,M.S. 131,Junior High-Intermediate-Middle School - Public,40.716236,-73.993602
75684,J.H.S. 127 The Castle Hill,Junior High-Intermediate-Middle School - Public,40.838416,-73.853202
170573,Bronx Academy Of Promise Charter Sch,Charter School,40.834676,-73.921562
21383,PS 55 & Playground,Elementary School,40.536381,-74.163514
117566,Thurgood Marshall Academy Lower School,Elementary School - Public,40.825859,-73.937799
95973,Achievement First Endeavor Charter,Charter School,40.682454,-73.965895
114769,Knowledge And Power Preparatory Academy Vi,Junior High-Intermediate-Middle School - Public,40.601756,-73.763585
72213,P.S. 164 Queens Valley,K-8 School - Public,40.721325,-73.823495
72480,P.S. 195 Manhattan Beach,Elementary School - Public,40.580209,-73.943628
71059,P.S. 165 Edith K. Bergtraum,Elementary School - Public,40.729641,-73.81776
62288,J.H.S. 125 Henry Hudson,Junior High-Intermediate-Middle School - Public,40.829156,-73.857613
106834,P.S. 069 Journey Prep School,Elementary School - Public,40.816861,-73.860592
107549,M.S. 137 America's School Of Heroes,Junior High-Intermediate-Middle School - Public,40.678317,-73.839613
118125,Kappa IIi,Junior High-Intermediate-Middle School - Public,40.845921,-73.886726
83478,Dr. Susan S. Mckinney Secondary School Of The Arts,Secondary School - Public,40.696913,-73.976026
162730,Success Academy Charter-Bed Stuy 1,Charter School,40.696922,-73.947114
20931,M.S. 255 Salk School Of Science,Junior High-Intermediate-Middle School - Public,40.735318,-73.981544
162467,Collegiate Institute For Math And Science,High school - Public,40.860381,-73.860302
73033,School For Global Leaders,Junior High-Intermediate-Middle School - Public,40.720182,-73.98597
88028,P.S. 58 - The School Of Heroes,Elementary School - Public,40.728697,-73.890063
41646,Queens Academy High School,High school - Public,40.765604,-73.828306
49792,P.S. 026 Jesse Owens,Elementary School - Public,40.691611,-73.931388
107501,P.S. 245,Elementary School - Public,40.644956,-73.962894
5440,Ember Charter School,Charter School,40.688552,-73.935411
137208,P.S. 043 Jonas Bronck,Elementary School - Public,40.806381,-73.921557
83506,Fort Greene Preparatory Academy,Junior High-Intermediate-Middle School - Public,40.694489,-73.971635
102761,Future Leaders Inst Charter School,Charter School,40.806355,-73.9487
178362,P.S./I.S. 218 Rafael Hernandez Dual Language Magnet School,K-8 School - Public,40.835621,-73.91971
8651,Manhattan Center For Science And Mathematics,High school - Public,40.79415,-73.933113
61373,Queens United Middle School,Junior High-Intermediate-Middle School - Public,40.672562,-73.743138
102505,Leadership Prep Canarsie Charter School (Leadership Prep Cs 4),K-8 School - Charter,40.644072,-73.892664
34714,P.S. 046 Edgar Allan Poe,Elementary School - Public,40.866544,-73.890669
138660,P.S. 214,K-8 School - Public,40.839331,-73.879765
60493,P.S. 235 Janice Marie Knight School,K-8 School - Public,40.644114,-73.921421
92764,P.S. 131 Brooklyn,Elementary School - Public,40.640608,-73.993147
2021,Uncommon Charter High School,Charter School,40.677354,-73.942115
86971,P.S. 034 John Harvard,Elementary School - Public,40.710905,-73.737639
106396,Elementary School,Elementary School,40.768637,-73.731185
84405,Murray Hill Academy,High school - Public,40.74647,-73.980994
5306,La Cima Charter School,Charter School,40.687982,-73.932386
75115,PS 148,Special Education School,40.699247,-73.945219
83234,Success Academy Charter School - Springfield Gardens - New York 6,Elementary School - Charter,40.681797,-73.753026
31734,Achievement First Bushwick Charter School,K-12 all grades School - Charter,40.688913,-73.910332
154347,Academic Leadership Charter School,Charter School,40.80765,-73.912813
121742,University Neighborhood High School,High school - Public,40.71228,-73.984068
136260,Garden For P.S. 194,School,40.820807,-73.940563
92852,Urban Assembly School For Criminal Justice,Secondary School - Public,40.634959,-73.982218
53337,Bronx Charter School For Children,Charter School,40.812676,-73.919954
8668,P.S. 205 Fiorello Laguardia,Elementary School - Public,40.855482,-73.881472
63393,P.S. 097 Bronx,Elementary School - Public,40.863149,-73.84681
5477,La Cima Charter School,Elementary School - Charter,40.687938,-73.932374
39833,Hillside Arts & Letters Academy,High school - Public,40.714261,-73.798075
143630,PS 244q,Elementary School,40.754581,-73.826159
105041,Discovery High School,High school - Public,40.870225,-73.89707
46018,P.S. 028 Wright Brothers,Elementary School - Public,40.831616,-73.942152
83564,Special Education School,Special Education School,40.816575,-73.848236
166937,Mid Manh Adult Training Center,Educational Skills Center,40.805915,-73.951902
104839,P.S. 126 Dr Marjorie H Dunbar,Elementary School - Public,40.836382,-73.928447
5437,Teaching Firms Of America-Professional Preparatory Charter School,K-8 School - Charter,40.688346,-73.935321
110826,Central Park East High School,High school - Public,40.793734,-73.948622
45068,Middle College High School At Laguardia Community College,High school - Public,40.743981,-73.935098
8584,Success Acad Charter Sch-Harlem 3,Charter School,40.785284,-73.942156
99246,Icahn Charter School 5,Charter School,40.856826,-73.843173
134777,Renaissance School Of The Arts,Junior High-Intermediate-Middle School - Public,40.797507,-73.936142
113273,Summit Academy Charter School,Secondary School - Charter,40.677845,-74.004865
75439,P.S. 133 Queens,Elementary School - Public,40.732194,-73.717726
42801,P.S. 149 Sojourner Truth,K-8 School - Public,40.802666,-73.948151
38089,Legacy College Preparatory Charter,Charter School,40.813231,-73.919638
138467,P.S. X114 - Luis Llorens Torres Schools,Elementary School - Public,40.834972,-73.923305
77631,P.S. 092 Adrian Hegeman,Elementary School - Public,40.656245,-73.953879
119078,Bard High School Early College,High school - Public,40.718269,-73.97608
73665,P.S. 209 Clearview Gardens,Elementary School - Public,40.783793,-73.795412
6001,Northside Charter High School,Charter School,40.719672,-73.948025
79977,P.S. 059 William Floyd,Elementary School - Public,40.697703,-73.943401
112991,IS 72,Intermediate School,40.592426,-74.158606
122213,PS 371,Special Education School,40.654174,-74.0053
61188,P.S. 327 Dr. Rose B. English,K-8 School - Public,40.667955,-73.911721
21082,Canarsie Ascend Middle School,Charter School,40.639325,-73.909387
8567,Success Academy Charter School - Harlem 3,K-8 School - Charter,40.79601,-73.944567
161011,Bronx Cs For Excellence Ms,Charter School,40.834059,-73.85881
90885,Explore Exceed Charter Upper School,Charter School,40.664819,-73.959249
117396,Success Academy Charter School - Harlem 5,K-8 School - Charter,40.820175,-73.944466
96934,Academy For Health Careers,High school - Public,40.675909,-73.939309
168118,Success Academy Cs-Williamsburg,Charter School,40.71186,-73.95997
24418,Charter High School-Law And Social,Charter School,40.853701,-73.911891
155480,George Westinghouse Career And Technical Education High School,High school - Public,40.695434,-73.985607
4426,P.S. 112 Lefferts Park,Elementary School - Public,40.619415,-74.000559
19353,Neighborhood Charter School-Harlem 3,Charter School,40.821417,-73.95252
100133,P.S. 112 Bronxwood,Elementary School - Public,40.884802,-73.843971
134078,Urban Academy Laboratory High School,High school - Public,40.765584,-73.959615
30512,Success Academy Charter School - Cobble Hill,Elementary School - Charter,40.685158,-73.993651
99338,PS 16 (Former PS 9),Elementary School,40.639687,-74.079592
72996,P.S./I.S. 104 The Fort Hamilton School,K-8 School - Public,40.620411,-74.028576
1916,P.S. 155,Elementary School - Public,40.679284,-73.810181
120773,PS 42 & Annex,Elementary School,40.552162,-74.16952
5901,Achievement First North Brooklyn Pre,Charter School,40.693811,-73.914892
134912,Success Academy Charter-Harlem West,Charter School,40.802284,-73.95408
130260,School,School,40.728129,-73.982419
87869,P. S. 62 - Chester Park School,Elementary School - Public,40.688371,-73.835677
155412,Staten Island Tech HS & Af,Academic High School,40.568165,-74.116235
162728,Brooklyn Arbor Elementary School,Elementary School - Public,40.709955,-73.954756
73090,Baruch College Campus High School,High school - Public,40.741879,-73.985795
5968,The Academy Of Talented Scholars,Elementary School - Public,40.606937,-73.986701
83384,Bronx Leadership Academy II High School,High school - Public,40.822036,-73.923397
69923,Sunset Park Avenues Elementary School,Elementary School - Public,40.65073,-74.008621
117491,The Children's Workshop School,Elementary School - Public,40.727621,-73.978435
114774,Academy Of Medical Technology: A College Board School,Secondary School - Public,40.601756,-73.763585
26307,Community Roots Charter Middle Sch.,Charter School,40.697841,-73.980743
87433,Young Women's Leadership School Of Brooklyn,Secondary School - Public,40.705027,-73.938705
19442,Explore Charter School,Charter School,40.656391,-73.951548
123537,University Heights Secondary School,High school - Public,40.818132,-73.911522
139842,South Bronx Charter School-Annex,Charter School,40.807396,-73.916388
110622,Auxiliary Services High School,Academic High School,40.638577,-74.077445
199513,Digital Arts And Cinema Technology High School,Secondary School - Public,40.685158,-73.993651
87484,John Dewey High School,High school - Public,40.587649,-73.981472
109710,P.S./I.S. 087 Middle Village,K-8 School - Public,40.711577,-73.8718
55138,"H.E.R.O. High (Health, Education, And Research Occupations High School)",High school - Public,40.810511,-73.907597
83800,Democracy Prep Endurance Charter School,Secondary School - Charter,40.810518,-73.948759
62313,P.S. 152 Evergreen,Elementary School - Public,40.82497,-73.873999
77670,P.S. 019 Marino Jeantet,Elementary School - Public,40.745603,-73.866801
101776,Achievement First Linden Elementary School,Elementary School - Charter,40.659744,-73.885656
46792,P.S. 046 Arthur Tappan,K-8 School - Public,40.831556,-73.93617
34574,The Cinema School,High school - Public,40.832101,-73.877455
113181,Bard High School Early College Queens,High school - Public,40.744566,-73.936921
92359,PS 269 Ax & (Old 89 Bklyn),Elementary School,40.640334,-73.947045
123760,P.S. 274 Kosciusko,Elementary School - Public,40.694409,-73.927966
60296,Andries Hudde,Junior High-Intermediate-Middle School - Public,40.623781,-73.946822
97628,Eagle Academy For Young Men IIi,Secondary School - Public,40.691538,-73.778459
81448,P.S. 068 Bronx,Elementary School - Public,40.891384,-73.838787
69827,P.S. 81q Jean Paul Richter,Elementary School - Public,40.703836,-73.911997
125872,Community Roots Charter School,K-8 School - Charter,40.69524,-73.977817
76421,M.S. 51 William Alexander,Junior High-Intermediate-Middle School - Public,40.672209,-73.984618
4532,Hebrew Language Academy Charter 2,Charter School,40.600799,-73.986345
80011,Benjamin N. Cardozo High School,High school - Public,40.751848,-73.756587
103327,P.S. 396,Elementary School - Public,40.85426,-73.913024
89715,P.S. 171 Peter G. Van Alst,Elementary School - Public,40.770965,-73.92907
73291,I.S. 339,Junior High-Intermediate-Middle School - Public,40.8406,-73.90418
39446,Mott Haven Community High School,High school - Public,40.810511,-73.907597
111195,Icahn Cs 7 Middle School,Charter School,40.818818,-73.868568
86060,"East Side Elementary School, PS 267",Elementary School - Public,40.763897,-73.963878
106875,Success Academy Charter School - Bronx 4 - New York 2,Elementary School - Charter,40.823479,-73.859903
172394,The Star Academy - P.S.63,Elementary School - Public,40.724425,-73.986221
163388,Harlem Village Academy East Charter,Charter School,40.799182,-73.933396
123449,Frederick Douglass Academy IIi Secondary School,High school - Public,40.8337,-73.903949
75553,Urban Assembly School For Wildlife Conservation,Secondary School - Public,40.843897,-73.884338
117360,Success Academy Charter Ms Harlem,Charter School,40.814206,-73.942883
6845,P.S. 226 Alfred De B.Mason,K-8 School - Public,40.615312,-73.976956
129994,Girls Preparatory Charter School Of New York,K-8 School - Charter,40.729141,-73.982481
83241,I.S. 059 Springfield Gardens,Junior High-Intermediate-Middle School - Public,40.681797,-73.753026
83343,J.H.S. 151 Lou Gehrig,Junior High-Intermediate-Middle School - Public,40.82257,-73.921515
160213,School In The Square Public Cs,Charter School,40.848736,-73.936027
123303,P.S. 232 Lindenwood,K-8 School - Public,40.665689,-73.850759
69925,Sunset Park Prep,Junior High-Intermediate-Middle School - Public,40.652207,-74.007631
131764,Fort Hamilton High School,High school - Public,40.627177,-74.039362
39890,P.S. 011 Kathryn Phelan,Elementary School - Public,40.747636,-73.905727
122230,P.S. 527 - East Side School For Social Action,Elementary School - Public,40.780654,-73.947864
60477,P.S. 091 The Albany Avenue School,Elementary School - Public,40.66173,-73.940385
84266,York College-Academic Core Bld,Academic High School,40.701738,-73.79626
92510,Williamsburg Collegiate Charter School,Junior High-Intermediate-Middle School - Charter,40.70589,-73.962075
79996,Our World Neighborhood Charter Ms,Charter School,40.761879,-73.919181
125731,Success Academy Cs - Washington Hgts,Charter School,40.711462,-74.001168
95827,Waterside School For Leadership,Junior High-Intermediate-Middle School - Public,40.580949,-73.83137
81809,The Jermaine L. Green Stem Institute Of Queens,Elementary School - Public,40.679742,-73.77449
80084,George Washington Carver High School For The Sciences,High school - Public,40.668078,-73.757867
91270,M.S. 053 Brian Piccolo,Junior High-Intermediate-Middle School - Public,40.603942,-73.7498
92400,P.S. 071 Rose E. Scala,K-8 School - Public,40.845484,-73.829628
72908,Jacqueline Kennedy Onassis High School,High school - Public,40.757624,-73.983442
181571,Hellenic Classical Charter School,Charter School,40.662802,-73.9922
122261,P.S. 024,Elementary School - Public,40.652806,-74.004539
123813,P.S. 005 Ellen Lurie,Elementary School - Public,40.858402,-73.922311
74905,Juan Morel Campos Secondary School,Secondary School - Public,40.703877,-73.953477
123434,I.S. 219 New Venture School,Junior High-Intermediate-Middle School - Public,40.8337,-73.903949
79961,P.S. 082 Hammond,Elementary School - Public,40.703781,-73.812235
85625,P.S. 193 Alfred J. Kennedy,Elementary School - Public,40.792118,-73.809496
117421,Forsyth Satellite Academy,High school - Public,40.722388,-73.990485
110811,Central Park East I,Elementary School - Public,40.793734,-73.948622
92513,Williamsburg Collegiate Chrtr Sch,Charter School,40.706059,-73.961899
81112,Bayside High School,High school - Public,40.77137,-73.78102
90176,Queens Collegiate: A College Board School,Secondary School - Public,40.714261,-73.798075
82823,Brighter Choice Community School,Elementary School - Public,40.693759,-73.940737
18207,Heketi Community Charter School,Charter School,40.808885,-73.92177
161067,Brilla College Prep Cs-Veritas,Charter School,40.815385,-73.919945
147087,P.S. 127 Aerospace Science Magnet School,K-8 School - Public,40.76508,-73.871387
34817,PS 20 & Playground,Elementary School,40.636608,-74.132476
108913,P.S. 163 Arthur A. Schomburg,Elementary School - Public,40.851747,-73.898834
63873,"High School For Construction Trades, Engineering And Architecture",High school - Public,40.689274,-73.841152
59806,Riverdale Avenue Community School,Elementary School - Public,40.65996,-73.913596
116238,P.S. X015 Institute For Environmental Learning,K-8 School - Public,40.859192,-73.909845
115519,P.S. 161 The Crown,Elementary School - Public,40.665915,-73.949225
92422,P.S. 054 Samuel C. Barnes,Elementary School - Public,40.692599,-73.952647
47639,Success Academy Charter School - Harlem 2,K-8 School - Charter,40.805682,-73.935404
31447,Uncommon Collegiate Charter High Sch,Charter School,40.684709,-73.947271
101768,Collegiate Academy-Math-Personal Awa,Charter School,40.657732,-73.888649
39741,Luisa Pineiro Fuentes School Of Science And Discovery,Elementary School - Public,40.869147,-73.901834
134947,M.S. 301 Paul L. Dunbar,Junior High-Intermediate-Middle School - Public,40.822313,-73.906744
70663,J.H.S. 157 Stephen A. Halsey,Junior High-Intermediate-Middle School - Public,40.732328,-73.852995
105038,"Celia Cruz Bronx High School Of Music, The",High school - Public,40.870225,-73.89707
5019,P.S. 160 William T. Sampson,Elementary School - Public,40.636577,-73.998785
103199,"New Explorations Into Science, Technology And Math High School",K-12 all grades School - Public,40.719368,-73.979619
105040,P.S. 340,Elementary School - Public,40.869378,-73.897136
59773,P.S. 207 Elizabeth G. Leary,K-8 School - Public,40.620252,-73.936256
75464,P.S. 048 Mapleton,Elementary School - Public,40.62154,-73.987261
61295,New American Academy Charter School,Elementary School - Charter,40.651526,-73.914194
61370,P.S. 276 Louis Marshall,Elementary School - Public,40.63393,-73.908254
74999,P.S. 360,Elementary School - Public,40.874736,-73.902239
94497,P.S. 068 Cambridge,Elementary School - Public,40.69697,-73.897344
118608,IS 51 & Playground,Intermediate School,40.623078,-74.145522
87539,P.S. 055 Benjamin Franklin,Elementary School - Public,40.835878,-73.904926
61035,Middle School For Art And Philosophy,Junior High-Intermediate-Middle School - Public,40.657871,-73.920036
85494,J.H.S. 050 John D. Wells,Junior High-Intermediate-Middle School - Public,40.71186,-73.95997
97543,New Visions Charter High School For Advanced Math And Science,High school - Charter,40.877239,-73.91312
34412,P.S. 019 Asher Levy,Elementary School - Public,40.72989,-73.98423
90177,Jamaica Gateway To The Sciences,High school - Public,40.714261,-73.798075
25548,Learners And Leaders,Elementary School - Public,40.707232,-73.915657
84316,Academy Of American Studies,High school - Public,40.751141,-73.937569
62845,Bronx Charter Sch For Excellence 2,Charter School,40.845809,-73.86419
111198,P.S. 380 John Wayne Elementary,Elementary School - Public,40.701933,-73.953408
117631,PS 36 & Annex,Elementary School,40.543112,-74.18275
40347,High School For Innovation In Advertising And Media,High school - Public,40.640434,-73.898504
61816,Vista Academy,Junior High-Intermediate-Middle School - Public,40.676946,-73.883839
8487,P.S. 070 Max Schoenfeld,Elementary School - Public,40.844409,-73.90801
34682,PS 156,Elementary School,40.823001,-73.924129
162387,Kipp Amp Elementary Charter School,Charter School,40.672579,-73.937259
103323,Brooklyn Ascend Charter School,Charter School,40.662068,-73.920714
39890,P.S. 011 Kathryn Phelan,Elementary School - Public,40.746017,-73.909203
90881,P.S. 375 Jackie Robinson School,Elementary School - Public,40.664913,-73.959596
103627,P.S. 094 Kings College School,Elementary School - Public,40.880456,-73.875303
92250,International High School At Prospect Heights,High school - Public,40.669805,-73.96069
42770,PS 32 & Playground,Elementary School,40.55825,-74.155036
95860,P.S. 212 Lady Deborah Moody,Elementary School - Public,40.587472,-73.985573
67560,PS 228,Elementary School,40.756936,-73.874881
94485,Academy For College Preparation And Career Exploration: A College Board School,Secondary School - Public,40.649579,-73.957105
104479,P.S. 213 The Carl Ullman School,Elementary School - Public,40.747467,-73.74544
121507,The High School For Language And Diplomacy,High school - Public,40.735319,-73.987085
123675,P.S. 178 - Dr. Selman Waksman,Elementary School - Public,40.875154,-73.833092
107670,Bronx High School For Medical Science,Secondary School - Public,40.839581,-73.911303
32409,Bronx Academy Of Health Careers,High school - Public,40.875185,-73.861635
5513,PS 22-Teacher Parking,Elementary School,40.677235,-73.959535
102752,P.S. 076 A. Philip Randolph,K-8 School - Public,40.806529,-73.951371
164809,PS 186,Special Education School,40.831399,-73.897812
148760,Bronx Charter Sch For Excellence 3,Charter School,40.88812,-73.863522
170303,NY Center For Autism Cs - Bronx,Charter School,40.828715,-73.900452
92547,P.S. 188 Michael E. Berdy,Elementary School - Public,40.576549,-74.000727
161842,P.S. 151 Lyndon B. Johnson,Elementary School - Public,40.693382,-73.908294
162451,P.S. 008 Robert Fulton,K-8 School - Public,40.700747,-73.992824
8657,Isaac Newton Middle School For Math & Science,Junior High-Intermediate-Middle School - Public,40.79415,-73.933113
82669,Brooklyn High School Of The Arts,High school - Public,40.68398,-73.980287
78785,P.S. 229 Emanuel Kaplan,Elementary School - Public,40.734631,-73.897083
48540,St Hope Leadership Acad Charter Sch,Charter School,40.814915,-73.945442
105862,N.Y.C. Museum School,High school - Public,40.742569,-74.00236
162521,Rachel Carson High School For Coastal Studies,High school - Public,40.582486,-73.972165
134873,Coalition School For Social Change,High school - Public,40.79922,-73.933721
90129,P.S. 200 Benson School,Elementary School - Public,40.602927,-74.001801
23745,Lemon Creek Bluebelt,Elementary School,40.542454,-74.21106
42801,P.S. 149 Sojourner Truth,K-8 School - Public,40.802666,-73.948151
113145,Aviation Career & Technical Education High School,High school - Public,40.743495,-73.929454
111306,IS  2 & Playground,Intermediate School,40.577155,-74.100178
136930,Urban Science Academy,Junior High-Intermediate-Middle School - Public,40.827723,-73.913812
101595,The Maxine Greene HS For Imaginative Inquiry,High school - Public,40.7749,-73.98563
30223,J.H.S. 143 Eleanor Roosevelt,Junior High-Intermediate-Middle School - Public,40.849255,-73.930915
106869,P.S. 100 Isaac Clason,Elementary School - Public,40.821968,-73.862645
130511,IS 34 (Old Tottenville HS),Intermediate School,40.50777,-74.243621
115374,P.S. 132 The Conselyea School,Elementary School - Public,40.714844,-73.945746
137012,P.S. 035 Franz Siegel,Elementary School - Public,40.827565,-73.917923
69163,P.S. 360,Elementary School - Public,40.702419,-73.756266
62283,Blueprint Middle School,Junior High-Intermediate-Middle School - Public,40.829156,-73.857613
77612,Parkside Preparatory Academy,Junior High-Intermediate-Middle School - Public,40.656414,-73.951475
2597,East Elmhurst Community School,Elementary School - Public,40.76167,-73.871954
112951,P.S. 206 The Horace Harding School,Elementary School - Public,40.734108,-73.861004
104377,Hebrew Language Academy Charter,Charter School,40.612317,-73.914172
30123,Success Academy Charter School - Harlem 1,K-12 all grades School - Charter,40.74647,-73.980994
94371,P.S. 146 Howard Beach,K-8 School - Public,40.660521,-73.834777
104895,South Bronx Classical Charter IIi,Charter School,40.829541999999996,-73.906226
75537,P.S. 067 Mohegan School,Elementary School - Public,40.843897,-73.884338
33252,Dream Charter School,Charter School,40.788822,-73.944771
101400,P.S. 145 Andrew Jackson,Elementary School - Public,40.701456,-73.932285
106833,Bronx Bridges High School,High school - Public,40.821438,-73.855897
38059,Brooklyn School For Music & Theatre,High school - Public,40.669805,-73.96069
92749,Achievement First Crown Heights,Charter School,40.662068,-73.936441
97788,Academic High School,Academic High School,40.675596,-73.799783
61436,Millennium Brooklyn HS,High school - Public,40.669308,-73.978695
163115,Success Academy Cs Midtown West,Charter School,40.763581,-73.99085
77618,Explore Charter School,K-8 School - Charter,40.656414,-73.951475
196273,"Math, Eng, Sci Academy Charter High",Charter School,40.708683,-74.01166
197188,New Heights Academy Charter School,Charter School,40.828778,-73.945334
123760,P.S. 274 Kosciusko,Elementary School - Public,40.694409,-73.927966
50608,Newcomers High School,High school - Public,40.751602,-73.936811
83572,P.S. 001 Courtlandt School,Elementary School - Public,40.819233,-73.919248
74452,Leadership Preparatory Ocean Hill Charter School,K-12 all grades School - Charter,40.633717,-73.917621
71597,P.S. 188 Kingsbury,Elementary School - Public,40.735161,-73.754678
63534,P.S. 056 Norwood Heights,Elementary School - Public,40.875349,-73.87498
95894,P.S. 156 Laurelton,Elementary School - Public,40.672562,-73.743138
161071,P.S. 201 The Discovery School For Inquiry And Research,Elementary School - Public,40.736502,-73.81294
193208,Leadership Prep Bedford Stuyvesant Uncommon Prep Charter School,K-12 all grades School - Charter,40.681922,-73.945566
42347,Central Queens Academy Charter Schoo,Charter School,40.702575,-73.857672
118985,Battery Park City School,K-8 School - Public,40.706362,-74.017422
95936,Midwood High School,High school - Public,40.632831,-73.952316
19436,P.S. 174 William Sidney Mount,Elementary School - Public,40.720623,-73.861404
107396,Metropolitan Expeditionary Learning School,Secondary School - Public,40.708525,-73.855802
96951,J.H.S. 190 Russell Sage,Junior High-Intermediate-Middle School - Public,40.723171,-73.851731
90139,P.S. 054 Hillside,Elementary School - Public,40.702679,-73.824604
83813,Democracy Prep Endurance Charter,Charter School,40.810841,-73.94928
5275,Ember Charter School,Charter School,40.684616,-73.946912
61009,P.S. 135 Sheldon A. Brookner,Elementary School - Public,40.653284,-73.932968
138638,P.S. 032 Belmont,Elementary School - Public,40.85182,-73.886224
81809,The Jermaine L. Green Stem Institute Of Queens,Elementary School - Public,40.679742,-73.77449
122428,Leadership Prep Brownsville Charter,Charter School,40.666935,-73.907683
121542,International High School At Union Square,High school - Public,40.735319,-73.987085
30514,P.S. 506: The School Of Journalism & Technology,Elementary School - Public,40.641955,-74.019375
82669,Brooklyn High School Of The Arts,High school - Public,40.684276,-73.981105
75452,I.S. 119 The Glendale,K-8 School - Public,40.704983,-73.874949
97543,New Visions Charter High School For Advanced Math And Science,High school - Charter,40.877239,-73.91312
76610,Academy Of Public Relations,Junior High-Intermediate-Middle School - Public,40.818869,-73.905332
155181,South Bronx Community Charter High S,Charter School,40.821767,-73.92328
160887,PS 31. Plygd/Davis Plygd,Elementary School,40.641893,-74.085447
85544,P.S. 209 Margaret Mead,K-8 School - Public,40.586685,-73.961491
137110,P.S./I.S. 187 Hudson Cliffs,K-8 School - Public,40.856137,-73.93703
26342,P.S. 241 Emma L. Johnston,Elementary School - Public,40.668916,-73.960528
138385,P.S. 085 Great Expectations,Elementary School - Public,40.85883,-73.894845
47430,P.S. 102 Jacques Cartier,Elementary School - Public,40.794994,-73.938437
71632,Irwin Altman Middle School 172,Junior High-Intermediate-Middle School - Public,40.741645,-73.713246
74450,Leadership Prep Ocean Hill Charter,Charter School,40.672279,-73.906075
103306,Kipp Star College Prep Charter School,K-12 all grades School - Charter,40.819779,-73.957064
95536,New Visions Aim Charter HS II,Charter School,40.823459,-73.898762
72996,P.S./I.S. 104 The Fort Hamilton School,K-8 School - Public,40.618006,-74.028623
88707,Eagle Academy For Young Men,Secondary School - Public,40.845313,-73.897374
82872,Manhattan Charter School,Elementary School - Charter,40.71825,-73.984063
123770,Ebc High School For Public Service - Bushwick,High school - Public,40.694709,-73.929303
163290,High School For Medical Professions,High school - Public,40.640434,-73.898504
5280,Jhs 258 & Playground,Intermediate School,40.681922,-73.945566
81794,Catherine & Count Basie Middle School 72,Junior High-Intermediate-Middle School - Public,40.674916,-73.775603
94471,High School For Service & Learning At Erasmus,High school - Public,40.649579,-73.957105
63745,P.S. 076 William Hallet,Elementary School - Public,40.760674,-73.941693
155516,International Charter School Of NY,Charter School,40.692361,-73.986854
90428,P.S. 169 Bay Terrace,Elementary School - Public,40.782469,-73.778473
61364,P.S. 279 Herman Schreiber,Elementary School - Public,40.644072,-73.892664
59051,PS 256 Annex (Q816),Elementary School,40.577474,-73.855146
40201,The 30th Avenue School (G&T Citywide),K-8 School - Public,40.766083,-73.930099
112870,Brooklyn Laboratory Charter School,Charter School,40.697307,-73.985859
117481,The East Village Community School,Elementary School - Public,40.727621,-73.978435
48562,P.S. 277 Gerritsen Beach,Elementary School - Public,40.595885,-73.927958
23907,"PS 286, Playground & Dist 22",Elementary School,40.591283,-73.938764
107662,Bronx High School Of Business,High school - Public,40.839581,-73.911303
116730,P.S. X037 - Multiple Intelligence School,K-8 School - Public,40.879848,-73.910766
124168,Achievement First East Brooklyn High,Charter School,40.67163,-73.893332
82740,Excellence Girls Middle Academy Sch,Charter School,40.671882,-73.924384
81115,P.S. 041 Crocheron,Elementary School - Public,40.770003,-73.771048
93582,P.S. 130 The Parkside,Elementary School - Public,40.64797,-73.973159
61119,Riverdale Avenue Middle School,Junior High-Intermediate-Middle School - Public,40.65996,-73.913596
86996,P.S. 009 Teunis G. Bergen,Elementary School - Public,40.678607,-73.966183
181644,Westchester Square Academy,High school - Public,40.839941,-73.83914
118117,P.S. 092 Bronx,Elementary School - Public,40.846181,-73.889533
162374,M.S. 158 Marie Curie,Junior High-Intermediate-Middle School - Public,40.756283,-73.772335
95894,P.S. 156 Laurelton,Elementary School - Public,40.672562,-73.743138
97535,New Visions Charter HS-Humanities,Charter School,40.877247,-73.912819
110665,P.S. 075 Emily Dickinson,Elementary School - Public,40.795112,-73.973966
77256,P.S. 048 William Wordsworth,Elementary School - Public,40.693573,-73.796192
83231,Success Academy Cs - Springfield,Charter School,40.681797,-73.753026
131259,P.S. 058 The Carroll,Elementary School - Public,40.68047,-73.99564
158144,Brilla College Prep Charter,Charter School,40.780109,-73.947483
62312,The School For Inquiry And Social Justice,Junior High-Intermediate-Middle School - Public,40.82497,-73.873999
77453,New Voices School Of Academic & Creative Arts,Junior High-Intermediate-Middle School - Public,40.660965,-73.989011
181893,Harlem Prep Charter Middle School,Charter School,40.788899,-73.9446
97592,Wave Preparatory Elementary School,Elementary School - Public,40.599738,-73.758372
113162,High School Of Applied Communication,High school - Public,40.744566,-73.936921
4166,P.S. 001 The Bergen,Elementary School - Public,40.649221,-74.0117
22947,PS 5 & Portables,Elementary School,40.529411,-74.187284
138461,Community School For Social Justice,High school - Public,40.815788,-73.929981
123610,One World Middle School At Edenwald,Junior High-Intermediate-Middle School - Public,40.886165,-73.84043
44948,"Robert F. Wagner, Jr. Secondary School For Arts And Technology",Secondary School - Public,40.742183,-73.936448
69108,Merrick Academy-Queens Public Charte,Charter School,40.714414,-73.752946
86898,PS 753 (Old Sterling HS),Special Education School,40.682626,-73.969209
125782,Lafayette Academy,Junior High-Intermediate-Middle School - Public,40.791462,-73.970972
64659,P.S. 149 Christa Mcauliffe,Elementary School - Public,40.755283,-73.874426
136189,Academy For Personal Leadership And Excellence,Junior High-Intermediate-Middle School - Public,40.859479,-73.900501
83273,PS 7 (K-007),Elementary School,40.688806,-73.87361
25838,P.S. 114 Ryder Elementary,Elementary School - Public,40.642691,-73.907905
136716,P.S./M.S. 004 Crotona Park West,K-8 School - Public,40.841752,-73.897932
134213,Tompkins Square Middle School,Junior High-Intermediate-Middle School - Public,40.723767,-73.981723
164608,The Matilda Avenue School,Elementary School - Public,40.90144,-73.85402
85571,P.S. 216 Arturo Toscanini,Elementary School - Public,40.589847,-73.969671
63420,High School Of Computers And Technology,High school - Public,40.875185,-73.861635
47342,Mott Hall High School,High school - Public,40.817275,-73.947241
104802,Glen Oaks Athletic Field,Intermediate School,40.743785,-73.726412
136762,P.S. 134 George F. Bristow,Elementary School - Public,40.831497,-73.894401
64823,P.S. 148 Queens,Elementary School - Public,40.757971,-73.878695
101705,Brooklyn Technical High School,High school - Public,40.688928,-73.976438
55698,Bronx Aerospace High School,High school - Public,40.875185,-73.861635
137337,P.S. 091 Bronx,Elementary School - Public,40.857688,-73.907819
165180,Rosalyn Yalow Charter School,Charter School,40.836773,-73.917277
135882,Success Academy Charter School - Bronx 1,K-8 School - Charter,40.813720000000004,-73.925919
83464,P.S. 020 Clinton Hill,Elementary School - Public,40.691085,-73.971075
74466,Brownsville Collegiate Charter Sch,Charter School,40.668636,-73.905093
137306,Institute For Collaborative Education,Secondary School - Public,40.732666,-73.982583
89734,P.S. 132 Ralph Bunche,Elementary School - Public,40.681948,-73.749523
79978,Success Academy Charter School - Bed-Stuy 2,Elementary School - Charter,40.697703,-73.943401
162830,Ocean Hill Collegiate Charter School,Junior High-Intermediate-Middle School - Charter,40.67807,-73.915367
97524,New Visions Charter HS-Adv Math/Scie,Charter School,40.877312,-73.91303
7482,P.S. 034 Oliver H. Perry,Elementary School - Public,40.726393,-73.949768
113057,Sch Of Coop Tech Ed/Playground,Vocational High School,40.783892,-73.945133
122377,Seaview Hospital/Ems St. 22,Academic High School,40.592297,-74.131744
77673,Corona Arts & Sciences Academy,Junior High-Intermediate-Middle School - Public,40.74601,-73.865186
161566,Olympus Academy,High school - Public,40.645821,-73.898446
112559,Academy For Conservation And The Environment,High school - Public,40.633717,-73.917621
97538,Bronx Theatre High School,High school - Public,40.877239,-73.91312
2288,Success Academy-Bronx 2 Middle Schoo,Charter School,40.832255,-73.9142
72508,Success Academy Charter School-NYC 5,Charter School,40.684282,-73.873197
23266,Rochdale Early Advantage Charter Sch,Charter School,40.679741,-73.778181
5479,P.S. 262 El Hajj Malik El Shabazz Elementary School,Elementary School - Public,40.683057,-73.929813
94613,City Knoll Middle School,Junior High-Intermediate-Middle School - Public,40.753351,-73.997534
78764,The Woodside Community School,Elementary School - Public,40.747636,-73.905727
112782,"Queens School Of Inquiry, The",Secondary School - Public,40.724209,-73.809041
109378,Conselyea Preparatory School,Junior High-Intermediate-Middle School - Public,40.715257,-73.957076
162829,Ocean Hill Collegiate Charter Sch,Charter School,40.677942,-73.91509
22879,Penn-Wortman Houses & Senr Ctr,Elementary School,40.656278,-73.888117
154354,Public School 57,Elementary School,40.611042,-74.083628
81448,P.S. 068 Bronx,Elementary School - Public,40.891384,-73.838787
5697,P.S. 310 Marble Hill,Elementary School - Public,40.872463,-73.905308
2986,Queens High School For Language Studies,High school - Public,40.764985,-73.826736
118129,The School Of Science And Applied Learning,Elementary School - Public,40.845921,-73.886726
105694,Mott Hall IIi,Junior High-Intermediate-Middle School - Public,40.835036,-73.900576
105036,International School For Liberal Arts,Secondary School - Public,40.870225,-73.89707
123384,P.S. 224 Hale A. Woodruff,Elementary School - Public,40.664698,-73.865916
113932,P.S. 049 Dorothy Bonawit Kole,K-8 School - Public,40.719621,-73.875394
101748,Uft Charter School,Charter School,40.659744,-73.885656
71324,Veritas Academy,High school - Public,40.764985,-73.826736
193709,P.S. 133 Fred R Moore,Elementary School - Public,40.809688,-73.939155
22215,Academic High School,Academic High School,40.690935,-73.990852
21699,Success Academy Charter School-NYC 9,Charter School,40.691237,-73.940671
107428,P.S. 316 Elijah Stroud,Elementary School - Public,40.674573,-73.960911
104844,P.S. 043,K-8 School - Public,40.594062,-73.761393
41661,Beginning With Children Charter II,Charter School,40.703602,-73.953697
101780,Uft Secondary Charter Sch,Charter School,40.659744,-73.885656
68279,Queens Satellite High School For Opportunity,High school - Public,40.708266,-73.79958
182457,Williamsburg Collegiate Cs-Annex,Charter School,40.677391,-73.942076
61728,World Academy For Total Community Health High School,High school - Public,40.666862,-73.895127
